{
    "Абакан": [
        {
            "guid": "03d531df-4b60-4140-868e-a34bd61be043",
            "title": "Абакан № 07",
            "brand": "Гармония Здоровья",
            "city": "Абакан",
            "street": "Пушкина",
            "buildNumber": "127",
            "office": null,
            "phone": "8(3902)-248-77-4",
            "weekDayTime": "08:00 - 22:00",
            "weekDayBreakTime": "00:00 - 00:00",
            "weekEndTime": "08:00 - 22:00",
            "weekEndBreakTime": "00:00 - 00:00",
            "coordinates": [
                53.716825,
                91.445316
            ],
            "isHeadOffice": false,
            "isCashDispenser": false
        },
        {
            "guid": "74a63955-3f44-4e4b-90a6-a627b5a738c0",
            "title": "Абакан № 18",
            "brand": "Дешёвая Аптека",
            "city": "Абакан",
            "street": "Пирятинская",
            "buildNumber": "7",
            "office": null,
            "phone": "8 (3902) 50-00-2",
            "weekDayTime": "08:00 - 22:00",
            "weekDayBreakTime": "00:00 - 00:00",
            "weekEndTime": "08:00 - 22:00",
            "weekEndBreakTime": "00:00 - 00:00",
            "coordinates": [
                53.702649,
                91.401837
            ],
            "isHeadOffice": false,
            "isCashDispenser": false
        },
        {
            "guid": "a8ad5e8a-293f-490c-b922-df27273b57d7",
            "title": "Абакан № 24",
            "brand": "Аптека Всем",
            "city": "Абакан",
            "street": "Ленина",
            "buildNumber": "70А",
            "office": null,
            "phone": "248308",
            "weekDayTime": "08:00 - 22:00",
            "weekDayBreakTime": "00:00 - 00:00",
            "weekEndTime": "08:00 - 22:00",
            "weekEndBreakTime": "00:00 - 00:00",
            "coordinates": [
                53.723256,
                91.450894
            ],
            "isHeadOffice": false,
            "isCashDispenser": false
        },
        {
            "guid": "2e5e9a54-c1a4-47a9-973b-f28d47973522",
            "title": "Абакан № 29",
            "brand": "Дешёвая Аптека",
            "city": "Абакан",
            "street": "Пушкина",
            "buildNumber": "195 стр 53Н",
            "office": null,
            "phone": "8 (3902) 358-82-2",
            "weekDayTime": "08:00 - 21:00",
            "weekDayBreakTime": "00:00 - 00:00",
            "weekEndTime": "08:00 - 21:00",
            "weekEndBreakTime": "00:00 - 00:00",
            "coordinates": [
                53.715477,
                91.430125
            ],
            "isHeadOffice": false,
            "isCashDispenser": true
        },
        {
            "guid": "65231955-2c6c-4c2b-8564-dba82a0b6d95",
            "title": "Абакан № 31",
            "brand": "Аптека Всем",
            "city": "Абакан",
            "street": "Торговая",
            "buildNumber": "5",
            "office": null,
            "phone": "8 (3902) 250-550",
            "weekDayTime": "08:00 - 22:00",
            "weekDayBreakTime": "00:00 - 00:00",
            "weekEndTime": "08:00 - 22:00",
            "weekEndBreakTime": "00:00 - 00:00",
            "coordinates": [
                53.742778,
                91.435129
            ],
            "isHeadOffice": false,
            "isCashDispenser": true
        },
        {
            "guid": "07cfb899-a450-493c-acc5-120f3819e8f5",
            "title": "Абакан № 32",
            "brand": "Дешёвая Аптека",
            "city": "Абакан",
            "street": "Чкалова",
            "buildNumber": "19",
            "office": null,
            "phone": "8 (3902) 250-25-1",
            "weekDayTime": "08:00 - 21:00",
            "weekDayBreakTime": "00:00 - 00:00",
            "weekEndTime": "08:00 - 21:00",
            "weekEndBreakTime": "00:00 - 00:00",
            "coordinates": [
                53.720624,
                91.454604
            ],
            "isHeadOffice": false,
            "isCashDispenser": true
        },
        {
            "guid": "027d0bf1-1dc8-4306-9392-b4bb35a518dc",
            "title": "Абакан № 33",
            "brand": "Дешёвая Аптека",
            "city": "Абакан",
            "street": "Пушкина",
            "buildNumber": "1",
            "office": null,
            "phone": "8 (3902) 358-58-3",
            "weekDayTime": "08:00 - 21:00",
            "weekDayBreakTime": "00:00 - 00:00",
            "weekEndTime": "08:00 - 21:00",
            "weekEndBreakTime": "00:00 - 00:00",
            "coordinates": [
                53.716644,
                91.478877
            ],
            "isHeadOffice": false,
            "isCashDispenser": true
        },
        {
            "guid": "e70a3ee4-53ca-4145-98ed-dd24b9da3686",
            "title": "Абакан № 37",
            "brand": "Дешёвая Аптека",
            "city": "Абакан",
            "street": "Щетинкина",
            "buildNumber": "36",
            "office": null,
            "phone": "83902248694",
            "weekDayTime": "08:00 - 22:00",
            "weekDayBreakTime": "00:00 - 00:00",
            "weekEndTime": "08:00 - 22:00",
            "weekEndBreakTime": "00:00 - 00:00",
            "coordinates": [
                53.727952,
                91.442459
            ],
            "isHeadOffice": false,
            "isCashDispenser": true
        },
        {
            "guid": "f5cab573-4a93-4ee8-b0d3-cf7c80c73f45",
            "title": "Абакан № 39",
            "brand": "Дешёвая Аптека",
            "city": "Абакан",
            "street": "Дружбы Народов",
            "buildNumber": "33",
            "office": "97Н",
            "phone": "8 (3902) 25-00-50",
            "weekDayTime": "08:00 - 22:00",
            "weekDayBreakTime": "00:00 - 00:00",
            "weekEndTime": "08:00 - 22:00",
            "weekEndBreakTime": "00:00 - 00:00",
            "coordinates": [
                53.740637,
                91.425849
            ],
            "isHeadOffice": false,
            "isCashDispenser": true
        },
        {
            "guid": "0a69101d-89f4-4674-b5bc-2debb5c6b712",
            "title": "Абакан № 40",
            "brand": "«‎ДА»‎ аптека",
            "city": "Абакан",
            "street": "Пушкина",
            "buildNumber": "54",
            "office": null,
            "phone": "8(3902)25-03-35",
            "weekDayTime": "08:00 - 20:00",
            "weekDayBreakTime": "00:00 - 00:00",
            "weekEndTime": "08:00 - 20:00",
            "weekEndBreakTime": "00:00 - 00:00",
            "coordinates": [
                53.718488,
                91.453374
            ],
            "isHeadOffice": false,
            "isCashDispenser": true
        },
        {
            "guid": "f2127c46-ce5a-4cb6-8d17-718f50d0ece3",
            "title": "Абакан № 42",
            "brand": "Дешёвая Аптека",
            "city": "Абакан",
            "street": "Чертыгашева",
            "buildNumber": "114",
            "office": "1Н",
            "phone": "8 (390) 225-91-14",
            "weekDayTime": "08:00 - 22:00",
            "weekDayBreakTime": "00:00 - 00:00",
            "weekEndTime": "08:00 - 22:00",
            "weekEndBreakTime": "00:00 - 00:00",
            "coordinates": [
                53.724934,
                91.439773
            ],
            "isHeadOffice": false,
            "isCashDispenser": true
        },
        {
            "guid": "9de2a04d-78c5-42de-a574-656c8cd633a4",
            "title": "Абакан № 45",
            "brand": "«‎ДА»‎ аптека",
            "city": "Абакан",
            "street": "Маршала Жукова",
            "buildNumber": "18",
            "office": "91Н",
            "phone": "8(390)225-00-30",
            "weekDayTime": "08:00 - 22:00",
            "weekDayBreakTime": "00:00 - 00:00",
            "weekEndTime": "08:00 - 22:00",
            "weekEndBreakTime": "00:00 - 00:00",
            "coordinates": [
                53.723757,
                91.46206
            ],
            "isHeadOffice": false,
            "isCashDispenser": false
        }
    ],
    "Ангарск": [
        {
            "guid": "85572832-e939-4dec-bc20-8cc2f9302b72",
            "title": "Иркутск № 01",
            "brand": "Гармония Здоровья",
            "city": "Ангарск",
            "street": "123-й квартал",
            "buildNumber": "10",
            "office": null,
            "phone": "8 (395) 552-23-03",
            "weekDayTime": "09:00 - 22:00",
            "weekDayBreakTime": "00:00 - 00:00",
            "weekEndTime": "09:00 - 22:00",
            "weekEndBreakTime": "00:00 - 00:00",
            "coordinates": [
                52.548285,
                103.899864
            ],
            "isHeadOffice": false,
            "isCashDispenser": false
        },
        {
            "guid": "d030932e-cd80-419b-85f9-05e930c1e751",
            "title": "Иркутск № 02",
            "brand": "Гармония Здоровья",
            "city": "Ангарск",
            "street": "33-й микрорайон",
            "buildNumber": "14",
            "office": null,
            "phone": "8 (395) 558-58-53",
            "weekDayTime": "08:00 - 22:00",
            "weekDayBreakTime": "00:00 - 00:00",
            "weekEndTime": "08:00 - 22:00",
            "weekEndBreakTime": "00:00 - 00:00",
            "coordinates": [
                52.515208,
                103.841489
            ],
            "isHeadOffice": false,
            "isCashDispenser": false
        },
        {
            "guid": "e6eead96-2dec-4ceb-852e-7c6f353df36c",
            "title": "Иркутск № 03",
            "brand": "Гармония Здоровья",
            "city": "Ангарск",
            "street": "219-й квартал",
            "buildNumber": "13",
            "office": null,
            "phone": "8 (395) 558-58-55",
            "weekDayTime": "08:00 - 22:00",
            "weekDayBreakTime": "00:00 - 00:00",
            "weekEndTime": "08:00 - 22:00",
            "weekEndBreakTime": "00:00 - 00:00",
            "coordinates": [
                52.496301,
                103.830353
            ],
            "isHeadOffice": false,
            "isCashDispenser": false
        },
        {
            "guid": "14c93524-0a44-41c2-9af8-8225a503e273",
            "title": "Иркутск № 04",
            "brand": "Гармония Здоровья",
            "city": "Ангарск",
            "street": "254-й квартал",
            "buildNumber": "3",
            "office": null,
            "phone": "8 (395) 558-58-59",
            "weekDayTime": "10:00 - 20:00",
            "weekDayBreakTime": "00:00 - 00:00",
            "weekEndTime": "10:00 - 20:00",
            "weekEndBreakTime": "00:00 - 00:00",
            "coordinates": [
                52.4951,
                103.853925
            ],
            "isHeadOffice": false,
            "isCashDispenser": false
        },
        {
            "guid": "cbb782bb-18a1-49ab-a069-f2dbd6422b34",
            "title": "Иркутск № 13",
            "brand": "Гармония Здоровья",
            "city": "Ангарск",
            "street": "192 квартал",
            "buildNumber": "12",
            "office": null,
            "phone": "8 (395) 248-44-73",
            "weekDayTime": "08:00 - 22:00",
            "weekDayBreakTime": "00:00 - 00:00",
            "weekEndTime": "08:00 - 22:00",
            "weekEndBreakTime": "00:00 - 00:00",
            "coordinates": [
                52.504004,
                103.842013
            ],
            "isHeadOffice": false,
            "isCashDispenser": false
        }
    ],
    "Анжеро-Судженск": [
        {
            "guid": "e5d20e82-a66c-4ef8-98e6-469a445c565a",
            "title": "Кемерово № 54",
            "brand": "Гармония Здоровья",
            "city": "Анжеро-Судженск",
            "street": "Крылова",
            "buildNumber": "15",
            "office": null,
            "phone": "369345",
            "weekDayTime": "08:00 - 22:00",
            "weekDayBreakTime": "00:00 - 00:00",
            "weekEndTime": "08:00 - 22:00",
            "weekEndBreakTime": "00:00 - 00:00",
            "coordinates": [
                56.128756,
                86.043836
            ],
            "isHeadOffice": false,
            "isCashDispenser": true
        },
        {
            "guid": "86862f8b-ddcc-4b01-bbcf-83daf5bb5607",
            "title": "Кемерово № 62",
            "brand": "Гармония Здоровья",
            "city": "Анжеро-Судженск",
            "street": "Магистральная",
            "buildNumber": "34",
            "office": null,
            "phone": "8 (384) 221-56-62",
            "weekDayTime": "08:00 - 22:00",
            "weekDayBreakTime": "00:00 - 00:00",
            "weekEndTime": "08:00 - 22:00",
            "weekEndBreakTime": "00:00 - 00:00",
            "coordinates": [
                56.094972,
                86.063985
            ],
            "isHeadOffice": false,
            "isCashDispenser": true
        }
    ],
    "Аскиз с.": [
        {
            "guid": "a4fd3b86-ca45-4831-a619-2ac149bb54d7",
            "title": "Абакан № 09",
            "brand": "Дешёвая Аптека",
            "city": "Аскиз с.",
            "street": "Первомайская",
            "buildNumber": "3",
            "office": null,
            "phone": "8 (39045) 591-29-7",
            "weekDayTime": "08:00 - 20:00",
            "weekDayBreakTime": "00:00 - 00:00",
            "weekEndTime": "08:00 - 20:00",
            "weekEndBreakTime": "00:00 - 00:00",
            "coordinates": [
                53.133097,
                90.533993
            ],
            "isHeadOffice": false,
            "isCashDispenser": false
        }
    ],
    "Ачинск": [
        {
            "guid": "84cdc754-c6d7-4ec3-be4c-990dfbc8750d",
            "title": "Красноярск № 37",
            "brand": "Дешёвая Аптека",
            "city": "Ачинск",
            "street": "Лапенкова",
            "buildNumber": "1",
            "office": null,
            "phone": "8 (39151) 5-40-90",
            "weekDayTime": "09:00 - 20:00",
            "weekDayBreakTime": "00:00 - 00:00",
            "weekEndTime": "09:00 - 20:00",
            "weekEndBreakTime": "00:00 - 00:00",
            "coordinates": [
                56.24462,
                90.480822
            ],
            "isHeadOffice": false,
            "isCashDispenser": false
        },
        {
            "guid": "0b6bd02e-c9e3-4f4c-ab1a-ba35f612fe4e",
            "title": "Красноярск № 48",
            "brand": "Гармония Здоровья",
            "city": "Ачинск",
            "street": "Кирова",
            "buildNumber": "56Б",
            "office": null,
            "phone": "8 (39151) 5-40-94",
            "weekDayTime": "08:00 - 22:00",
            "weekDayBreakTime": "00:00 - 00:00",
            "weekEndTime": "08:00 - 22:00",
            "weekEndBreakTime": "00:00 - 00:00",
            "coordinates": [
                56.304405,
                90.53234
            ],
            "isHeadOffice": false,
            "isCashDispenser": false
        },
        {
            "guid": "d0aa582f-8d78-4f68-8fea-77254aa8b6df",
            "title": "Красноярск № 58",
            "brand": "Аптека Всем",
            "city": "Ачинск",
            "street": "2-й микрорайон",
            "buildNumber": "25Г",
            "office": null,
            "phone": "8 (391) 988-96-58",
            "weekDayTime": "08:00 - 22:00",
            "weekDayBreakTime": "00:00 - 00:00",
            "weekEndTime": "08:00 - 22:00",
            "weekEndBreakTime": "00:00 - 00:00",
            "coordinates": [
                56.261323,
                90.490541
            ],
            "isHeadOffice": false,
            "isCashDispenser": false
        },
        {
            "guid": "b2191974-bbcc-43cf-bfbc-07144ee1aa64",
            "title": "Красноярск № 68",
            "brand": "Дешёвая Аптека",
            "city": "Ачинск",
            "street": "5й микрорайон",
            "buildNumber": "6а/2",
            "office": null,
            "phone": "8 (39151) 3-06-30",
            "weekDayTime": "08:00 - 22:00",
            "weekDayBreakTime": "00:00 - 00:00",
            "weekEndTime": "08:00 - 22:00",
            "weekEndBreakTime": "00:00 - 00:00",
            "coordinates": [
                56.255062,
                90.482816
            ],
            "isHeadOffice": false,
            "isCashDispenser": false
        },
        {
            "guid": "2698a76e-ee25-4d51-9b13-8598518efc60",
            "title": "Красноярск № 84",
            "brand": "Гармония Здоровья",
            "city": "Ачинск",
            "street": "3-й микрорайон",
            "buildNumber": "39",
            "office": null,
            "phone": "+7 (391) 986-96-84",
            "weekDayTime": "08:00 - 22:00",
            "weekDayBreakTime": "00:00 - 00:00",
            "weekEndTime": "08:00 - 22:00",
            "weekEndBreakTime": "00:00 - 00:00",
            "coordinates": [
                56.258448,
                90.488341
            ],
            "isHeadOffice": false,
            "isCashDispenser": true
        },
        {
            "guid": "392de168-5b18-4289-b13a-159eae217347",
            "title": "Красноярск № 97",
            "brand": "Дешёвая Аптека",
            "city": "Ачинск",
            "street": "4-й мкр",
            "buildNumber": "8Б ",
            "office": null,
            "phone": "8 (391) 988-93-97",
            "weekDayTime": "08:00 - 22:00",
            "weekDayBreakTime": "00:00 - 00:00",
            "weekEndTime": "08:00 - 22:00",
            "weekEndBreakTime": "00:00 - 00:00",
            "coordinates": [
                56.254442,
                90.487802
            ],
            "isHeadOffice": false,
            "isCashDispenser": true
        },
        {
            "guid": "8af676a2-5299-4d94-bdd4-0f4022e4d2f2",
            "title": "Красноярск № 98",
            "brand": "Дешёвая Аптека",
            "city": "Ачинск",
            "street": "3-й Привокзальный микрорайон",
            "buildNumber": "12а",
            "office": null,
            "phone": "8 (391) 228-71-98",
            "weekDayTime": "08:00 - 22:00",
            "weekDayBreakTime": "00:00 - 00:00",
            "weekEndTime": "08:00 - 22:00",
            "weekEndBreakTime": "00:00 - 00:00",
            "coordinates": [
                56.29858,
                90.52955
            ],
            "isHeadOffice": false,
            "isCashDispenser": true
        }
    ],
    "Балахта": [
        {
            "guid": "cb18f8e9-6bea-440a-8ebc-4de8ed84a372",
            "title": "Красноярск № 92",
            "brand": "Дешёвая Аптека",
            "city": "Балахта",
            "street": "Молодогвардейцев",
            "buildNumber": "6",
            "office": null,
            "phone": "8 (391) 988-97-92",
            "weekDayTime": "08:00 - 22:00",
            "weekDayBreakTime": "00:00 - 00:00",
            "weekEndTime": "08:00 - 22:00",
            "weekEndBreakTime": "00:00 - 00:00",
            "coordinates": [
                55.375444,
                91.618583
            ],
            "isHeadOffice": false,
            "isCashDispenser": true
        }
    ],
    "Барнаул": [
        {
            "guid": "e03fb92c-4d4e-41df-8709-4792ca5e89a7",
            "title": "Барнаул № 01",
            "brand": "Дешёвая Аптека",
            "city": "Барнаул",
            "street": "Молодежная",
            "buildNumber": "56",
            "office": null,
            "phone": "8(385)256-05-14",
            "weekDayTime": "08:00 - 22:00",
            "weekDayBreakTime": "00:00 - 00:00",
            "weekEndTime": "08:00 - 22:00",
            "weekEndBreakTime": "00:00 - 00:00",
            "coordinates": [
                53.344188,
                83.763849
            ],
            "isHeadOffice": false,
            "isCashDispenser": true
        },
        {
            "guid": "168583ae-cdb7-4f31-810d-575c8475b25a",
            "title": "Барнаул № 02",
            "brand": "Гармония Здоровья",
            "city": "Барнаул",
            "street": "Балтийская",
            "buildNumber": "116",
            "office": null,
            "phone": "8(385)256-70-05",
            "weekDayTime": "08:00 - 22:00",
            "weekDayBreakTime": "00:00 - 00:00",
            "weekEndTime": "08:00 - 22:00",
            "weekEndBreakTime": "00:00 - 00:00",
            "coordinates": [
                53.338398,
                83.652341
            ],
            "isHeadOffice": false,
            "isCashDispenser": true
        },
        {
            "guid": "87ca85f2-52e8-4922-9b0f-d25782e24e87",
            "title": "Барнаул № 05",
            "brand": "Гармония Здоровья",
            "city": "Барнаул",
            "street": "Сергея Семёнова",
            "buildNumber": "23",
            "office": null,
            "phone": "8(385)259-01-47",
            "weekDayTime": "08:00 - 22:00",
            "weekDayBreakTime": "00:00 - 00:00",
            "weekEndTime": "08:00 - 22:00",
            "weekEndBreakTime": "00:00 - 00:00",
            "coordinates": [
                53.351622,
                83.66348
            ],
            "isHeadOffice": false,
            "isCashDispenser": true
        },
        {
            "guid": "0ea21821-3172-4e3f-965f-b14966ed9bd4",
            "title": "Барнаул № 08",
            "brand": "Гармония Здоровья",
            "city": "Барнаул",
            "street": "Красноармейский пр-т ",
            "buildNumber": "51а",
            "office": null,
            "phone": "8 (385) 259-03-08",
            "weekDayTime": "08:00 - 22:00",
            "weekDayBreakTime": "00:00 - 00:00",
            "weekEndTime": "08:00 - 22:00",
            "weekEndBreakTime": "00:00 - 00:00",
            "coordinates": [
                53.337065,
                83.773892
            ],
            "isHeadOffice": false,
            "isCashDispenser": true
        },
        {
            "guid": "81f0605c-e1cb-4cd0-af44-a7371dd3ec91",
            "title": "Барнаул № 09",
            "brand": "Гармония Здоровья",
            "city": "Барнаул",
            "street": "​Мало-Олонская",
            "buildNumber": "28",
            "office": null,
            "phone": "8(385) 259-10-96",
            "weekDayTime": "09:00 - 23:00",
            "weekDayBreakTime": "00:00 - 00:00",
            "weekEndTime": "09:00 - 23:00",
            "weekEndBreakTime": "00:00 - 00:00",
            "coordinates": [
                53.3289,
                83.796912
            ],
            "isHeadOffice": false,
            "isCashDispenser": true
        },
        {
            "guid": "92c61f7a-f648-4250-9ba0-2c34a8c448b4",
            "title": "Барнаул № 14",
            "brand": "Гармония Здоровья",
            "city": "Барнаул",
            "street": "Строителей",
            "buildNumber": "117",
            "office": null,
            "phone": "8 (385) 259-12-14",
            "weekDayTime": "08:00 - 22:00",
            "weekDayBreakTime": "00:00 - 00:00",
            "weekEndTime": "08:00 - 22:00",
            "weekEndBreakTime": "00:00 - 00:00",
            "coordinates": [
                53.342772,
                83.752483
            ],
            "isHeadOffice": false,
            "isCashDispenser": true
        }
    ],
    "Белый Яр": [
        {
            "guid": "3a57ba61-1593-49d1-be36-63236eb6467d",
            "title": "Абакан № 22",
            "brand": "Дешёвая Аптека",
            "city": "Белый Яр",
            "street": "Ленина",
            "buildNumber": "94",
            "office": null,
            "phone": "8 (39041) 286-00",
            "weekDayTime": "08:00 - 20:00",
            "weekDayBreakTime": "00:00 - 00:00",
            "weekEndTime": "08:00 - 20:00",
            "weekEndBreakTime": "00:00 - 00:00",
            "coordinates": [
                53.600186,
                91.381976
            ],
            "isHeadOffice": false,
            "isCashDispenser": false
        }
    ],
    "Бея с.": [
        {
            "guid": "9da734a8-ec62-48de-bc5c-a70b9f83ef3e",
            "title": "Абакан № 26",
            "brand": "Дешёвая Аптека",
            "city": "Бея с.",
            "street": "Площадь Советов",
            "buildNumber": "10А",
            "office": null,
            "phone": "8 (39044) 303-64",
            "weekDayTime": "08:00 - 20:00",
            "weekDayBreakTime": "00:00 - 00:00",
            "weekEndTime": "08:00 - 20:00",
            "weekEndBreakTime": "00:00 - 00:00",
            "coordinates": [
                53.051608,
                90.921679
            ],
            "isHeadOffice": false,
            "isCashDispenser": true
        }
    ],
    "Бийск": [
        {
            "guid": "379f3d2a-e4b2-4322-ba9f-65ee050efa50",
            "title": "Барнаул № 10",
            "brand": "Гармония Здоровья",
            "city": "Бийск",
            "street": "​Владимира Ленина",
            "buildNumber": "252/2",
            "office": null,
            "phone": "8 (385) 422-21-60",
            "weekDayTime": "08:00 - 22:00",
            "weekDayBreakTime": "00:00 - 00:00",
            "weekEndTime": "08:00 - 22:00",
            "weekEndBreakTime": "00:00 - 00:00",
            "coordinates": [
                52.539688,
                85.212804
            ],
            "isHeadOffice": false,
            "isCashDispenser": true
        },
        {
            "guid": "c073a53b-88ef-4754-9076-0e641b0e8271",
            "title": "Барнаул № 11",
            "brand": "Гармония Здоровья",
            "city": "Бийск",
            "street": "Мопровский переулок",
            "buildNumber": "38",
            "office": null,
            "phone": "8 (385) 422-21-61",
            "weekDayTime": "08:00 - 22:00",
            "weekDayBreakTime": "00:00 - 00:00",
            "weekEndTime": "08:00 - 22:00",
            "weekEndBreakTime": "00:00 - 00:00",
            "coordinates": [
                52.547452,
                85.222722
            ],
            "isHeadOffice": false,
            "isCashDispenser": true
        },
        {
            "guid": "1b609832-d588-4850-ad1f-360f087d400c",
            "title": "Барнаул № 12",
            "brand": "Гармония Здоровья",
            "city": "Бийск",
            "street": "Михаила Ломоносова",
            "buildNumber": "38",
            "office": null,
            "phone": "8 (385) 422-21-63",
            "weekDayTime": "08:00 - 22:00",
            "weekDayBreakTime": "00:00 - 00:00",
            "weekEndTime": "08:00 - 22:00",
            "weekEndBreakTime": "00:00 - 00:00",
            "coordinates": [
                52.500969,
                85.144146
            ],
            "isHeadOffice": false,
            "isCashDispenser": true
        },
        {
            "guid": "54e0b66a-05d6-48c8-9f73-17b781488430",
            "title": "Барнаул № 13",
            "brand": "Гармония Здоровья",
            "city": "Бийск",
            "street": "Социалистическая",
            "buildNumber": "50",
            "office": null,
            "phone": "8 (385) 422-21-64",
            "weekDayTime": "08:00 - 22:00",
            "weekDayBreakTime": "00:00 - 00:00",
            "weekEndTime": "08:00 - 22:00",
            "weekEndBreakTime": "00:00 - 00:00",
            "coordinates": [
                52.500011,
                85.138589
            ],
            "isHeadOffice": false,
            "isCashDispenser": true
        },
        {
            "guid": "d8b4fef7-729c-4404-89ca-1eff7543f1cf",
            "title": "Барнаул № 16",
            "brand": "Гармония Здоровья",
            "city": "Бийск",
            "street": "Васильева",
            "buildNumber": "46",
            "office": null,
            "phone": "7 (385) 259-10-16",
            "weekDayTime": "08:00 - 22:00",
            "weekDayBreakTime": "00:00 - 00:00",
            "weekEndTime": "08:00 - 22:00",
            "weekEndBreakTime": "00:00 - 00:00",
            "coordinates": [
                52.509803,
                85.144507
            ],
            "isHeadOffice": false,
            "isCashDispenser": false
        },
        {
            "guid": "967518e6-4d12-4c3f-8f60-93e59670ac74",
            "title": "Барнаул № 19",
            "brand": "Гармония Здоровья",
            "city": "Бийск",
            "street": "Васильева",
            "buildNumber": "58",
            "office": null,
            "phone": "7 (385) 259-08-19",
            "weekDayTime": "08:00 - 22:00",
            "weekDayBreakTime": "00:00 - 00:00",
            "weekEndTime": "08:00 - 22:00",
            "weekEndBreakTime": "00:00 - 00:00",
            "coordinates": [
                52.508829,
                85.137128
            ],
            "isHeadOffice": false,
            "isCashDispenser": true
        },
        {
            "guid": "bec7da5a-b57e-4a2b-bdfb-6dc5db0c5735",
            "title": "Барнаул № 20",
            "brand": "Гармония Здоровья",
            "city": "Бийск",
            "street": "Мартьянова",
            "buildNumber": "148",
            "office": null,
            "phone": "7 (385) 259-14-20",
            "weekDayTime": "08:00 - 22:00",
            "weekDayBreakTime": "00:00 - 00:00",
            "weekEndTime": "08:00 - 22:00",
            "weekEndBreakTime": "00:00 - 00:00",
            "coordinates": [
                85.151597,
                52.531286
            ],
            "isHeadOffice": false,
            "isCashDispenser": false
        },
        {
            "guid": "78d53dd3-7b45-41b3-b85e-e3c895293154",
            "title": "Барнаул № 21",
            "brand": "Гармония Здоровья",
            "city": "Бийск",
            "street": "Коммунарский",
            "buildNumber": "18",
            "office": null,
            "phone": "7 (385) 259-05-21",
            "weekDayTime": "08:00 - 22:00",
            "weekDayBreakTime": "00:00 - 00:00",
            "weekEndTime": "08:00 - 22:00",
            "weekEndBreakTime": "00:00 - 00:00",
            "coordinates": [
                85.222901,
                52.540413
            ],
            "isHeadOffice": false,
            "isCashDispenser": false
        }
    ],
    "Боготол": [
        {
            "guid": "40f49979-02b6-4623-b4e5-c1106bd8abd8",
            "title": "Красноярск № 78",
            "brand": "Дешёвая Аптека",
            "city": "Боготол",
            "street": "Кирова",
            "buildNumber": "14а",
            "office": null,
            "phone": "8 (391) 986-86-78",
            "weekDayTime": "08:00 - 22:00",
            "weekDayBreakTime": "00:00 - 00:00",
            "weekEndTime": "08:00 - 22:00",
            "weekEndBreakTime": "00:00 - 00:00",
            "coordinates": [
                56.208153,
                89.532047
            ],
            "isHeadOffice": false,
            "isCashDispenser": true
        }
    ],
    "Богучаны с.": [
        {
            "guid": "7ee206a5-33dc-4b13-ba2a-3a2db6533c3d",
            "title": "Красноярск № 47",
            "brand": "Дешёвая Аптека",
            "city": "Богучаны с.",
            "street": "Ленина",
            "buildNumber": "40",
            "office": null,
            "phone": "8 (39162) 2-80-05",
            "weekDayTime": "08:00 - 22:00",
            "weekDayBreakTime": "00:00 - 00:00",
            "weekEndTime": "08:00 - 22:00",
            "weekEndBreakTime": "00:00 - 00:00",
            "coordinates": [
                58.383199,
                97.468987
            ],
            "isHeadOffice": false,
            "isCashDispenser": false
        }
    ],
    "Большая Мурта": [
        {
            "guid": "dc921971-a028-4cd1-bb18-11179539a692",
            "title": "Красноярск № 79",
            "brand": "Дешёвая Аптека",
            "city": "Большая Мурта",
            "street": "Центральный",
            "buildNumber": "5",
            "office": null,
            "phone": "8 (391) 986-66-79",
            "weekDayTime": "08:00 - 21:00",
            "weekDayBreakTime": "00:00 - 00:00",
            "weekEndTime": "08:00 - 21:00",
            "weekEndBreakTime": "00:00 - 00:00",
            "coordinates": [
                56.912617,
                93.140235
            ],
            "isHeadOffice": false,
            "isCashDispenser": true
        }
    ],
    "Бородино": [
        {
            "guid": "44ce90cb-3cc3-44d9-908b-decc583233d9",
            "title": "Красноярск № 56",
            "brand": "Дешёвая Аптека",
            "city": "Бородино",
            "street": "Ленина",
            "buildNumber": "34",
            "office": null,
            "phone": "8 (391) 988-95-56",
            "weekDayTime": "08:00 - 20:00",
            "weekDayBreakTime": "00:00 - 00:00",
            "weekEndTime": "08:00 - 20:00",
            "weekEndBreakTime": "00:00 - 00:00",
            "coordinates": [
                55.902838,
                94.905177
            ],
            "isHeadOffice": false,
            "isCashDispenser": false
        }
    ],
    "Голышманово пос.": [
        {
            "guid": "4ca3a85f-f866-4fdf-b197-3df00e9781b3",
            "title": "Тюмень № 01",
            "brand": "«‎ДА»‎ аптека",
            "city": "Голышманово пос.",
            "street": "Ленина ",
            "buildNumber": "13",
            "office": null,
            "phone": "+7 (3452) 57‒75‒11",
            "weekDayTime": "08:00 - 22:00",
            "weekDayBreakTime": "00:00 - 00:00",
            "weekEndTime": "08:00 - 22:00",
            "weekEndBreakTime": "00:00 - 00:00",
            "coordinates": [
                56.392337,
                68.37539
            ],
            "isHeadOffice": false,
            "isCashDispenser": true
        }
    ],
    "Горный пос.": [
        {
            "guid": "d4c0bebb-ee40-49b1-99f9-ca7e1642cb31",
            "title": "Новосибирск № 04",
            "brand": "Дешёвая Аптека",
            "city": "Горный пос.",
            "street": "Космическая",
            "buildNumber": "10/2",
            "office": null,
            "phone": "8 (38340) 4-05-05",
            "weekDayTime": "08:00 - 21:00",
            "weekDayBreakTime": "00:00 - 00:00",
            "weekEndTime": "08:00 - 21:00",
            "weekEndBreakTime": "00:00 - 00:00",
            "coordinates": [
                55.116021,
                83.882974
            ],
            "isHeadOffice": false,
            "isCashDispenser": true
        }
    ],
    "Дивногорск": [
        {
            "guid": "e198318b-5ee1-495b-b1a0-1422df2f8e27",
            "title": "Красноярск № 72",
            "brand": "Дешёвая Аптека",
            "city": "Дивногорск",
            "street": "Бочкина",
            "buildNumber": "10А/1",
            "office": null,
            "phone": "8 (391) 229-71-72",
            "weekDayTime": "08:00 - 22:00",
            "weekDayBreakTime": "00:00 - 00:00",
            "weekEndTime": "08:00 - 22:00",
            "weekEndBreakTime": "00:00 - 00:00",
            "coordinates": [
                55.957817,
                92.380606
            ],
            "isHeadOffice": false,
            "isCashDispenser": false
        },
        {
            "guid": "852c0459-6024-4ccc-b6bd-6c50829785bf",
            "title": "Красноярск № 99",
            "brand": "«‎ДА»‎ аптека",
            "city": "Дивногорск",
            "street": "Набережная",
            "buildNumber": "23/1",
            "office": null,
            "phone": "8 391 156 12 12",
            "weekDayTime": "08:00 - 22:00",
            "weekDayBreakTime": "00:00 - 00:00",
            "weekEndTime": "08:00 - 22:00",
            "weekEndBreakTime": "00:00 - 00:00",
            "coordinates": [
                55.966937,
                92.379079
            ],
            "isHeadOffice": false,
            "isCashDispenser": true
        }
    ],
    "Дудинка": [
        {
            "guid": "6bb268a8-56fb-4ac8-80cc-98ee6179f76a",
            "title": "Норильск № 18",
            "brand": "Дешёвая Аптека",
            "city": "Дудинка",
            "street": "Строителей",
            "buildNumber": "2",
            "office": "",
            "phone": "8-3919-369337",
            "weekDayTime": "08:00 - 22:00",
            "weekDayBreakTime": "00:00 - 00:00",
            "weekEndTime": "08:00 - 22:00",
            "weekEndBreakTime": "00:00 - 00:00",
            "coordinates": [
                69.404689,
                86.194743
            ],
            "isHeadOffice": false,
            "isCashDispenser": false
        }
    ],
    "Евпатория": [
        {
            "guid": "72996d41-d839-4c15-a78d-07237e6263be",
            "title": "Крым № 07",
            "brand": "«‎ДА»‎ аптека",
            "city": "Евпатория",
            "street": "Интернациональная",
            "buildNumber": "101",
            "office": null,
            "phone": "+7 (365) 288-72-37",
            "weekDayTime": "08:00 - 21:00",
            "weekDayBreakTime": "00:00 - 00:00",
            "weekEndTime": "08:00 - 21:00",
            "weekEndBreakTime": "00:00 - 00:00",
            "coordinates": [
                45.199731,
                33.358166
            ],
            "isHeadOffice": false,
            "isCashDispenser": false
        }
    ],
    "Железногорск": [
        {
            "guid": "3608a5bd-a61f-41c8-abf4-eb0f9f1aa5c3",
            "title": "Красноярск № 31",
            "brand": "Гармония Здоровья",
            "city": "Железногорск",
            "street": "Ленинградский",
            "buildNumber": "55",
            "office": null,
            "phone": "8 (3919) 74-24-24",
            "weekDayTime": "08:00 - 22:00",
            "weekDayBreakTime": "00:00 - 00:00",
            "weekEndTime": "08:00 - 22:00",
            "weekEndBreakTime": "00:00 - 00:00",
            "coordinates": [
                56.224617,
                93.520074
            ],
            "isHeadOffice": false,
            "isCashDispenser": false
        },
        {
            "guid": "ef6e0257-4a31-4914-b4d2-e25edb9fb30d",
            "title": "Красноярск № 51",
            "brand": "Дешёвая Аптека",
            "city": "Железногорск",
            "street": "Курчатова",
            "buildNumber": "3Р",
            "office": "",
            "phone": "8 (3919) 76-94-56",
            "weekDayTime": "08:00 - 21:00",
            "weekDayBreakTime": "00:00 - 00:00",
            "weekEndTime": "09:00 - 21:00",
            "weekEndBreakTime": "00:00 - 00:00",
            "coordinates": [
                56.243249,
                93.537555
            ],
            "isHeadOffice": false,
            "isCashDispenser": false
        },
        {
            "guid": "eff5c773-e275-4d4f-93a5-aff93e0337bf",
            "title": "Красноярск № 55",
            "brand": "Дешёвая Аптека",
            "city": "Железногорск",
            "street": "Курчатова",
            "buildNumber": "48",
            "office": null,
            "phone": "8 (3919) 76-65-55",
            "weekDayTime": "08:00 - 22:00",
            "weekDayBreakTime": "00:00 - 00:00",
            "weekEndTime": "09:00 - 22:00",
            "weekEndBreakTime": "00:00 - 00:00",
            "coordinates": [
                56.233419,
                93.551012
            ],
            "isHeadOffice": false,
            "isCashDispenser": false
        },
        {
            "guid": "4591db3b-14eb-4b0b-94f0-a7045046c8a7",
            "title": "Красноярск № 55 Оптика",
            "brand": "Очень Оптика",
            "city": "Железногорск",
            "street": "Курчатова",
            "buildNumber": "48",
            "office": null,
            "phone": "8 (3919) 76-65-55",
            "weekDayTime": "08:00 - 19:00",
            "weekDayBreakTime": "00:00 - 00:00",
            "weekEndTime": "09:00 - 19:00",
            "weekEndBreakTime": "00:00 - 00:00",
            "coordinates": [
                56.233419,
                93.551012
            ],
            "isHeadOffice": false,
            "isCashDispenser": false
        },
        {
            "guid": "3d755cef-5eba-4c21-a724-f9894a6db3f4",
            "title": "Красноярск № 91",
            "brand": "Дешёвая Аптека",
            "city": "Железногорск",
            "street": "Ленинградский",
            "buildNumber": "13",
            "office": null,
            "phone": "8 (3919) 88-97-91",
            "weekDayTime": "08:00 - 22:00",
            "weekDayBreakTime": "00:00 - 00:00",
            "weekEndTime": "08:00 - 22:00",
            "weekEndBreakTime": "00:00 - 00:00",
            "coordinates": [
                56.225969,
                93.53486
            ],
            "isHeadOffice": false,
            "isCashDispenser": false
        }
    ],
    "Зеленогорск": [
        {
            "guid": "77bd75c8-c09b-4c35-b986-5529f2bf4535",
            "title": "Красноярск № 44",
            "brand": "Гармония Здоровья",
            "city": "Зеленогорск",
            "street": "Парковая",
            "buildNumber": "54",
            "office": null,
            "phone": "8 (391) 228-73-44",
            "weekDayTime": "08:00 - 22:00",
            "weekDayBreakTime": "00:00 - 00:00",
            "weekEndTime": "08:00 - 22:00",
            "weekEndBreakTime": "00:00 - 00:00",
            "coordinates": [
                56.102087,
                94.556236
            ],
            "isHeadOffice": false,
            "isCashDispenser": false
        },
        {
            "guid": "e85f835c-2078-4eea-84ff-5cdcecbb679e",
            "title": "Красноярск № 53",
            "brand": "Дешёвая Аптека",
            "city": "Зеленогорск",
            "street": "Энергетиков",
            "buildNumber": "4",
            "office": null,
            "phone": "8 (391) 988-94-53",
            "weekDayTime": "08:00 - 22:00",
            "weekDayBreakTime": "00:00 - 00:00",
            "weekEndTime": "08:00 - 22:00",
            "weekEndBreakTime": "00:00 - 00:00",
            "coordinates": [
                56.111208,
                94.575244
            ],
            "isHeadOffice": false,
            "isCashDispenser": false
        },
        {
            "guid": "ada28726-9690-4a5b-b8c6-25bd62f742d5",
            "title": "Красноярск № 62",
            "brand": "Дешёвая Аптека",
            "city": "Зеленогорск",
            "street": "Мира",
            "buildNumber": "29",
            "office": null,
            "phone": "8 (391) 988-95-62",
            "weekDayTime": "08:00 - 22:00",
            "weekDayBreakTime": "00:00 - 00:00",
            "weekEndTime": "08:00 - 22:00",
            "weekEndBreakTime": "00:00 - 00:00",
            "coordinates": [
                56.112849,
                94.596516
            ],
            "isHeadOffice": false,
            "isCashDispenser": false
        },
        {
            "guid": "33aab3bf-d0af-4bba-853a-15f872ddc24c",
            "title": "Красноярск № 80",
            "brand": "Гармония Здоровья",
            "city": "Зеленогорск",
            "street": "Заводская",
            "buildNumber": "9",
            "office": null,
            "phone": "8 (391) 986-96-80",
            "weekDayTime": "08:30 - 21:30",
            "weekDayBreakTime": "00:00 - 00:00",
            "weekEndTime": "08:30 - 21:30",
            "weekEndBreakTime": "00:00 - 00:00",
            "coordinates": [
                56.107805,
                94.575244
            ],
            "isHeadOffice": false,
            "isCashDispenser": true
        }
    ],
    "Иркутск": [
        {
            "guid": "6a754256-1566-49ab-bed1-d7ad242937f9",
            "title": "Иркутск № 10",
            "brand": "Дешёвая Аптека",
            "city": "Иркутск",
            "street": "Волжская",
            "buildNumber": "14а",
            "office": null,
            "phone": "8 (395) 243-89-10",
            "weekDayTime": "08:00 - 22:00",
            "weekDayBreakTime": "00:00 - 00:00",
            "weekEndTime": "08:00 - 22:00",
            "weekEndBreakTime": "00:00 - 00:00",
            "coordinates": [
                52.263872,
                104.313736
            ],
            "isHeadOffice": false,
            "isCashDispenser": false
        },
        {
            "guid": "f59aa24f-06a8-484d-9c7e-ab639430be8d",
            "title": "Иркутск № 12",
            "brand": "Дешёвая Аптека",
            "city": "Иркутск",
            "street": "Фурье",
            "buildNumber": "16",
            "office": null,
            "phone": "8 (395) 243-79-12",
            "weekDayTime": "08:00 - 20:00",
            "weekDayBreakTime": "00:00 - 00:00",
            "weekEndTime": "08:00 - 20:00",
            "weekEndBreakTime": "00:00 - 00:00",
            "coordinates": [
                52.283164,
                104.293848
            ],
            "isHeadOffice": false,
            "isCashDispenser": false
        },
        {
            "guid": "06aae823-c86b-4837-89e5-6fd8505d274b",
            "title": "Иркутск № 14",
            "brand": "Дешёвая Аптека",
            "city": "Иркутск",
            "street": "Розы Люксембург",
            "buildNumber": "217а",
            "office": null,
            "phone": "8 (395) 248-04-56",
            "weekDayTime": "09:00 - 22:00",
            "weekDayBreakTime": "00:00 - 00:00",
            "weekEndTime": "09:00 - 22:00",
            "weekEndBreakTime": "00:00 - 00:00",
            "coordinates": [
                52.350339,
                104.174084
            ],
            "isHeadOffice": false,
            "isCashDispenser": false
        }
    ],
    "Каа-Хем": [
        {
            "guid": "ef96cbd3-03c4-4444-9503-57c113444f3e",
            "title": "Тыва № 06",
            "brand": "Дешёвая Аптека",
            "city": "Каа-Хем",
            "street": "Шахтерская",
            "buildNumber": "84",
            "office": null,
            "phone": "7 (391) 988-94-06",
            "weekDayTime": "08:00 - 22:00",
            "weekDayBreakTime": "00:00 - 00:00",
            "weekEndTime": "08:00 - 22:00",
            "weekEndBreakTime": "00:00 - 00:00",
            "coordinates": [
                51.698191,
                94.55602
            ],
            "isHeadOffice": false,
            "isCashDispenser": false
        }
    ],
    "Канск": [
        {
            "guid": "bcb92f3b-5bb8-4ad8-bc3a-7f8ac3f51aa6",
            "title": "Красноярск № 06",
            "brand": "Гармония Здоровья",
            "city": "Канск",
            "street": "40 лет Октября",
            "buildNumber": "62/4",
            "office": null,
            "phone": "8 (391) 988-95-06",
            "weekDayTime": "09:00 - 22:00",
            "weekDayBreakTime": "00:00 - 00:00",
            "weekEndTime": "09:00 - 22:00",
            "weekEndBreakTime": "00:00 - 00:00",
            "coordinates": [
                56.231121,
                95.702048
            ],
            "isHeadOffice": false,
            "isCashDispenser": false
        },
        {
            "guid": "32be3c10-e79a-4d6e-aa7d-3ff8973cef4a",
            "title": "Красноярск № 27",
            "brand": "Дешёвая Аптека",
            "city": "Канск",
            "street": "Урицкого",
            "buildNumber": "8",
            "office": null,
            "phone": "8 (39161) 4-11-00",
            "weekDayTime": "08:00 - 20:00",
            "weekDayBreakTime": "00:00 - 00:00",
            "weekEndTime": "08:00 - 20:00",
            "weekEndBreakTime": "00:00 - 00:00",
            "coordinates": [
                56.205646,
                95.702378
            ],
            "isHeadOffice": false,
            "isCashDispenser": false
        }
    ],
    "Карабаново": [
        {
            "guid": "5762acd4-bf8d-43f1-bdad-2ca0cc358968",
            "title": "Москва № 10",
            "brand": "«‎ДА»‎ аптека",
            "city": "Карабаново",
            "street": "Победы",
            "buildNumber": "2а",
            "office": null,
            "phone": "7 (499) 302-18-10 (5910)",
            "weekDayTime": "08:00 - 21:00",
            "weekDayBreakTime": "00:00 - 00:00",
            "weekEndTime": "08:00 - 21:00",
            "weekEndBreakTime": "00:00 - 00:00",
            "coordinates": [
                56.308482,
                38.697582
            ],
            "isHeadOffice": false,
            "isCashDispenser": false
        }
    ],
    "Кедровый пос.": [
        {
            "guid": "dbe70c1a-fcd3-4d55-9629-a5eb14a23732",
            "title": "Красноярск № 93",
            "brand": "Дешёвая Аптека",
            "city": "Кедровый пос.",
            "street": "Дзержинского",
            "buildNumber": "3",
            "office": null,
            "phone": "8 (391) 986-98-93",
            "weekDayTime": "08:00 - 22:00",
            "weekDayBreakTime": "00:00 - 00:00",
            "weekEndTime": "08:00 - 22:00",
            "weekEndBreakTime": "00:00 - 00:00",
            "coordinates": [
                56.233204,
                92.329851
            ],
            "isHeadOffice": false,
            "isCashDispenser": true
        }
    ],
    "Кемерово": [
        {
            "guid": "e6802d25-4f2c-4dca-a761-94e4ad8d7ca9",
            "title": "Кемерово № 01",
            "brand": "Гармония Здоровья",
            "city": "Кемерово",
            "street": "Проспект Ленинградский",
            "buildNumber": "30/1",
            "office": null,
            "phone": "8 (384) 232-67-19",
            "weekDayTime": "08:00 - 22:00",
            "weekDayBreakTime": "00:00 - 00:00",
            "weekEndTime": "08:00 - 22:00",
            "weekEndBreakTime": "00:00 - 00:00",
            "coordinates": [
                55.343845,
                86.183497
            ],
            "isHeadOffice": false,
            "isCashDispenser": true
        },
        {
            "guid": "80c41433-9959-4413-91b2-da267cb66df8",
            "title": "Кемерово № 02",
            "brand": "Гармония Здоровья",
            "city": "Кемерово",
            "street": "проспект Ленина",
            "buildNumber": "117",
            "office": null,
            "phone": "8 (3842)21-56-85",
            "weekDayTime": "08:00 - 22:00",
            "weekDayBreakTime": "00:00 - 00:00",
            "weekEndTime": "08:00 - 22:00",
            "weekEndBreakTime": "00:00 - 00:00",
            "coordinates": [
                55.344558,
                86.146689
            ],
            "isHeadOffice": false,
            "isCashDispenser": true
        },
        {
            "guid": "3c0fb9b7-b733-43bb-b816-021ac028411c",
            "title": "Кемерово № 03",
            "brand": "Гармония Здоровья",
            "city": "Кемерово",
            "street": "просп. Кузнецкий",
            "buildNumber": "108",
            "office": null,
            "phone": "8 (384) 232-67-38",
            "weekDayTime": "08:00 - 22:00",
            "weekDayBreakTime": "00:00 - 00:00",
            "weekEndTime": "08:00 - 22:00",
            "weekEndBreakTime": "00:00 - 00:00",
            "coordinates": [
                55.339455,
                86.062718
            ],
            "isHeadOffice": false,
            "isCashDispenser": true
        },
        {
            "guid": "7301528f-a4c3-486e-9cd3-8263586d3eba",
            "title": "Кемерово № 04",
            "brand": "Гармония Здоровья",
            "city": "Кемерово",
            "street": "пр-т. Ленина",
            "buildNumber": "1",
            "office": null,
            "phone": "7 (384) 221-54-97",
            "weekDayTime": "08:00 - 22:00",
            "weekDayBreakTime": "00:00 - 00:00",
            "weekEndTime": "08:00 - 22:00",
            "weekEndBreakTime": "00:00 - 00:00",
            "coordinates": [
                55.343749,
                86.063154
            ],
            "isHeadOffice": false,
            "isCashDispenser": false
        },
        {
            "guid": "685f0401-265f-4fa8-9450-dbc60d0ebdd5",
            "title": "Кемерово № 05",
            "brand": "Гармония Здоровья",
            "city": "Кемерово",
            "street": "Тухачевского",
            "buildNumber": "2",
            "office": null,
            "phone": "7 (384) 221-56-05",
            "weekDayTime": "08:00 - 22:00",
            "weekDayBreakTime": "00:00 - 00:00",
            "weekEndTime": "08:00 - 22:00",
            "weekEndBreakTime": "00:00 - 00:00",
            "coordinates": [
                86.131895,
                55.344027
            ],
            "isHeadOffice": false,
            "isCashDispenser": true
        },
        {
            "guid": "ab3875f9-d5a2-4ebd-a1ba-5107f2db793a",
            "title": "Кемерово № 47",
            "brand": "Гармония Здоровья",
            "city": "Кемерово",
            "street": "Притомский проспект",
            "buildNumber": "9",
            "office": null,
            "phone": "8 (384) 221-59-37",
            "weekDayTime": "08:00 - 22:00",
            "weekDayBreakTime": "00:00 - 00:00",
            "weekEndTime": "08:00 - 22:00",
            "weekEndBreakTime": "00:00 - 00:00",
            "coordinates": [
                55.353555,
                86.114956
            ],
            "isHeadOffice": false,
            "isCashDispenser": true
        },
        {
            "guid": "c6d24b85-69a4-42a3-bae4-27aa173518da",
            "title": "Кемерово № 50",
            "brand": "Аптека Всем",
            "city": "Кемерово",
            "street": "Ленина",
            "buildNumber": "31",
            "office": null,
            "phone": "8(3842)21-59-30",
            "weekDayTime": "07:00 - 22:00",
            "weekDayBreakTime": "00:00 - 00:00",
            "weekEndTime": "07:00 - 22:00",
            "weekEndBreakTime": "00:00 - 00:00",
            "coordinates": [
                55.344044,
                86.074271
            ],
            "isHeadOffice": false,
            "isCashDispenser": true
        },
        {
            "guid": "84fa7429-bb7e-44a5-900a-ce397422e5dc",
            "title": "Кемерово № 56",
            "brand": "Гармония Здоровья",
            "city": "Кемерово",
            "street": "Тухачевского",
            "buildNumber": "50",
            "office": null,
            "phone": "8(3842)32-67-56",
            "weekDayTime": "08:00 - 20:00",
            "weekDayBreakTime": "00:00 - 00:00",
            "weekEndTime": "08:00 - 20:00",
            "weekEndBreakTime": "00:00 - 00:00",
            "coordinates": [
                55.317297,
                86.136057
            ],
            "isHeadOffice": false,
            "isCashDispenser": true
        },
        {
            "guid": "35ff72a7-685e-4c09-ad45-13f0b973c544",
            "title": "Кемерово № 69",
            "brand": "Гармония Здоровья",
            "city": "Кемерово",
            "street": "Сибиряков-Гвардейцев",
            "buildNumber": "26",
            "office": null,
            "phone": "8 (384) 221-58-69",
            "weekDayTime": "08:30 - 22:00",
            "weekDayBreakTime": "00:00 - 00:00",
            "weekEndTime": "08:30 - 22:00",
            "weekEndBreakTime": "00:00 - 00:00",
            "coordinates": [
                55.336522,
                86.075675
            ],
            "isHeadOffice": false,
            "isCashDispenser": true
        }
    ],
    "Керчь": [
        {
            "guid": "45462f92-fbc4-437c-949a-4b489e3261d5",
            "title": "Крым № 02",
            "brand": "«‎ДА»‎ аптека",
            "city": "Керчь",
            "street": "Маршала Еременко",
            "buildNumber": "30в",
            "office": null,
            "phone": "8 (365) 288-72-17",
            "weekDayTime": "08:00 - 22:00",
            "weekDayBreakTime": "00:00 - 00:00",
            "weekEndTime": "08:00 - 22:00",
            "weekEndBreakTime": "00:00 - 00:00",
            "coordinates": [
                45.361488,
                36.468986
            ],
            "isHeadOffice": false,
            "isCashDispenser": false
        }
    ],
    "Козулька": [
        {
            "guid": "6165dd2a-1bfb-431e-b830-367a8c87f2ac",
            "title": "Красноярск № 103",
            "brand": "«‎ДА»‎ аптека",
            "city": "Козулька",
            "street": "Вокзальная",
            "buildNumber": "10д",
            "office": null,
            "phone": "+7-391-988-98-03",
            "weekDayTime": "08:00 - 22:00",
            "weekDayBreakTime": "00:00 - 00:00",
            "weekEndTime": "08:00 - 22:00",
            "weekEndBreakTime": "00:00 - 00:00",
            "coordinates": [
                56.164426,
                91.389513
            ],
            "isHeadOffice": false,
            "isCashDispenser": false
        }
    ],
    "Краснодар": [
        {
            "guid": "ada42a7e-8557-4cb3-9704-aa7741fe79d6",
            "title": "Сочи № 11",
            "brand": "«‎ДА»‎ аптека",
            "city": "Краснодар",
            "street": "Московская",
            "buildNumber": "144 к2",
            "office": null,
            "phone": "8 (861) 206 05 91",
            "weekDayTime": "08:00 - 22:00",
            "weekDayBreakTime": "00:00 - 00:00",
            "weekEndTime": "08:00 - 22:00",
            "weekEndBreakTime": "00:00 - 00:00",
            "coordinates": [
                45.087968,
                39.003381
            ],
            "isHeadOffice": false,
            "isCashDispenser": false
        },
        {
            "guid": "e97ce5e7-6a69-4b27-bd63-cdeabbee27e9",
            "title": "Сочи № 18",
            "brand": "«‎ДА»‎ аптека",
            "city": "Краснодар",
            "street": "Петра Метальникова ",
            "buildNumber": "5корпус 1",
            "office": "1301/1",
            "phone": "+78612068718",
            "weekDayTime": "08:00 - 22:00",
            "weekDayBreakTime": "00:00 - 00:00",
            "weekEndTime": "08:00 - 22:00",
            "weekEndBreakTime": "00:00 - 00:00",
            "coordinates": [
                45.093429,
                39.008102
            ],
            "isHeadOffice": false,
            "isCashDispenser": false
        }
    ],
    "Красноярск": [
        {
            "guid": "fbb9255d-e2ca-4f2f-9442-dd6d3fb2d758",
            "title": "Красноярск № 01",
            "brand": "Дешёвая Аптека",
            "city": "Красноярск",
            "street": "Красноярский рабочий",
            "buildNumber": "129",
            "office": null,
            "phone": "8 (391) 269-94-11",
            "weekDayTime": "08:00 - 22:00",
            "weekDayBreakTime": "00:00 - 00:00",
            "weekEndTime": "08:00 - 22:00",
            "weekEndBreakTime": "00:00 - 00:00",
            "coordinates": [
                55.997808,
                92.914653
            ],
            "isHeadOffice": false,
            "isCashDispenser": false
        },
        {
            "guid": "65980c3d-1fb0-4051-8990-1d97787ab534",
            "title": "Красноярск № 02",
            "brand": "Эвалар",
            "city": "Красноярск",
            "street": "Красная площадь",
            "buildNumber": "3А",
            "office": null,
            "phone": "8 (391) 221-04-23",
            "weekDayTime": "08:00 - 22:00",
            "weekDayBreakTime": "00:00 - 00:00",
            "weekEndTime": "08:00 - 22:00",
            "weekEndBreakTime": "00:00 - 00:00",
            "coordinates": [
                56.007916,
                92.839402
            ],
            "isHeadOffice": false,
            "isCashDispenser": false
        },
        {
            "guid": "16fa4f7b-23bf-4120-a40b-ee5f12e913c7",
            "title": "Красноярск № 03",
            "brand": "Гармония Здоровья",
            "city": "Красноярск",
            "street": "Вавилова",
            "buildNumber": "1 ст39",
            "office": null,
            "phone": "8 (391) 988-99-03",
            "weekDayTime": "09:00 - 22:00",
            "weekDayBreakTime": "00:00 - 00:00",
            "weekEndTime": "09:00 - 22:00",
            "weekEndBreakTime": "00:00 - 00:00",
            "coordinates": [
                55.991715,
                92.909511
            ],
            "isHeadOffice": false,
            "isCashDispenser": false
        },
        {
            "guid": "ca4ee567-090d-430e-88b8-ea415fd2af85",
            "title": "Красноярск № 04",
            "brand": "Дешёвая Аптека",
            "city": "Красноярск",
            "street": "Красноярский рабочий",
            "buildNumber": "88А",
            "office": null,
            "phone": "8 (391) 264-55-25",
            "weekDayTime": "08:00 - 22:00",
            "weekDayBreakTime": "00:00 - 00:00",
            "weekEndTime": "08:00 - 22:00",
            "weekEndBreakTime": "00:00 - 00:00",
            "coordinates": [
                56.007965,
                92.949431
            ],
            "isHeadOffice": false,
            "isCashDispenser": false
        },
        {
            "guid": "2f2e74d5-e0c4-4790-9d1f-87614312d541",
            "title": "Красноярск № 05",
            "brand": "Гармония Здоровья",
            "city": "Красноярск",
            "street": "Телевизорная",
            "buildNumber": "1 ст4",
            "office": null,
            "phone": "8 (391) 245-87-73",
            "weekDayTime": "09:00 - 22:00",
            "weekDayBreakTime": "00:00 - 00:00",
            "weekEndTime": "09:00 - 22:00",
            "weekEndBreakTime": "00:00 - 00:00",
            "coordinates": [
                56.022035,
                92.79696
            ],
            "isHeadOffice": false,
            "isCashDispenser": true
        },
        {
            "guid": "9ca5cce1-db41-49a8-a619-9206455f7d4a",
            "title": "Красноярск № 05 Оптика",
            "brand": "Очень Оптика",
            "city": "Красноярск",
            "street": "Телевизорная",
            "buildNumber": "1 ст 4",
            "office": null,
            "phone": "8 (391) 216-37-05",
            "weekDayTime": "10:00 - 22:00",
            "weekDayBreakTime": "00:00 - 00:00",
            "weekEndTime": "10:00 - 22:00",
            "weekEndBreakTime": "00:00 - 00:00",
            "coordinates": [
                56.024176,
                92.787564
            ],
            "isHeadOffice": false,
            "isCashDispenser": false
        },
        {
            "guid": "ddd3d84a-c559-4f29-9d29-0f4b707d9e9a",
            "title": "Красноярск № 07",
            "brand": "Гармония Здоровья",
            "city": "Красноярск",
            "street": "Красноярский рабочий",
            "buildNumber": "165",
            "office": null,
            "phone": "8 (391) 988-96-07",
            "weekDayTime": "08:00 - 22:00",
            "weekDayBreakTime": "00:00 - 00:00",
            "weekEndTime": "08:00 - 22:00",
            "weekEndBreakTime": "00:00 - 00:00",
            "coordinates": [
                55.993904,
                92.897903
            ],
            "isHeadOffice": false,
            "isCashDispenser": false
        },
        {
            "guid": "c2e45acd-0b76-421b-9863-b691913abc6d",
            "title": "Красноярск № 10",
            "brand": "Гармония Здоровья",
            "city": "Красноярск",
            "street": "Красноярский рабочий",
            "buildNumber": "56Д",
            "office": null,
            "phone": "8 (391) 223-84-84",
            "weekDayTime": "07:30 - 22:00",
            "weekDayBreakTime": "00:00 - 00:00",
            "weekEndTime": "08:00 - 22:00",
            "weekEndBreakTime": "00:00 - 00:00",
            "coordinates": [
                56.01394,
                92.974949
            ],
            "isHeadOffice": false,
            "isCashDispenser": false
        },
        {
            "guid": "d9ad6888-8b1e-4675-ba56-e5b1f7fb5921",
            "title": "Красноярск № 100",
            "brand": "Гармония Здоровья",
            "city": "Красноярск",
            "street": "Парусная",
            "buildNumber": "10",
            "office": null,
            "phone": "8 (391) 988-93-50",
            "weekDayTime": "08:00 - 22:00",
            "weekDayBreakTime": "00:00 - 00:00",
            "weekEndTime": "08:00 - 22:00",
            "weekEndBreakTime": "00:00 - 00:00",
            "coordinates": [
                55.997974,
                92.902436
            ],
            "isHeadOffice": false,
            "isCashDispenser": true
        },
        {
            "guid": "5dce0219-1d4f-4c8b-b3a6-f8e3d4924255",
            "title": "Красноярск № 102",
            "brand": "Аптека Всем",
            "city": "Красноярск",
            "street": "красноярский рабочий",
            "buildNumber": "41",
            "office": null,
            "phone": "8391 989 13 02",
            "weekDayTime": "07:00 - 23:00",
            "weekDayBreakTime": "00:00 - 00:00",
            "weekEndTime": "07:00 - 23:00",
            "weekEndBreakTime": "00:00 - 00:00",
            "coordinates": [
                56.011025,
                92.96713
            ],
            "isHeadOffice": false,
            "isCashDispenser": true
        },
        {
            "guid": "ede2c298-33ce-456e-9d3e-1183dd92b7a3",
            "title": "Красноярск № 104",
            "brand": "«‎ДА»‎ аптека",
            "city": "Красноярск",
            "street": "9 мая ",
            "buildNumber": "38",
            "office": null,
            "phone": "7 (391) 988-96-54",
            "weekDayTime": "09:00 - 22:00",
            "weekDayBreakTime": "12:00 - 13:00",
            "weekEndTime": "09:00 - 22:00",
            "weekEndBreakTime": "12:00 - 13:00",
            "coordinates": [
                56.061368,
                92.916271
            ],
            "isHeadOffice": false,
            "isCashDispenser": false
        },
        {
            "guid": "b71ef92d-4f76-40b0-8f8e-d2c491b03add",
            "title": "Красноярск № 11",
            "brand": "Дешёвая Аптека",
            "city": "Красноярск",
            "street": "60 лет Октября",
            "buildNumber": "39А",
            "office": null,
            "phone": "8 (391) 234-32-32",
            "weekDayTime": "08:00 - 22:00",
            "weekDayBreakTime": "00:00 - 00:00",
            "weekEndTime": "08:00 - 22:00",
            "weekEndBreakTime": "00:00 - 00:00",
            "coordinates": [
                55.977435,
                92.850254
            ],
            "isHeadOffice": false,
            "isCashDispenser": false
        },
        {
            "guid": "35adf9c1-563e-4c66-a702-bc61bbcdccc8",
            "title": "Красноярск № 13",
            "brand": "Дешёвая Аптека",
            "city": "Красноярск",
            "street": "Вавилова",
            "buildNumber": "31",
            "office": null,
            "phone": "8 (391) 245-77-85",
            "weekDayTime": "08:00 - 22:00",
            "weekDayBreakTime": "00:00 - 00:00",
            "weekEndTime": "08:00 - 22:00",
            "weekEndBreakTime": "00:00 - 00:00",
            "coordinates": [
                55.998091,
                92.932189
            ],
            "isHeadOffice": false,
            "isCashDispenser": false
        },
        {
            "guid": "389e216c-d91f-417a-bfe2-d26942332fc5",
            "title": "Красноярск № 14",
            "brand": "Дешёвая Аптека",
            "city": "Красноярск",
            "street": "Металлургов",
            "buildNumber": "12",
            "office": null,
            "phone": "8 (391) 245-51-51",
            "weekDayTime": "08:00 - 22:00",
            "weekDayBreakTime": "00:00 - 00:00",
            "weekEndTime": "08:00 - 22:00",
            "weekEndBreakTime": "00:00 - 00:00",
            "coordinates": [
                56.055447,
                92.960028
            ],
            "isHeadOffice": false,
            "isCashDispenser": false
        },
        {
            "guid": "e3cdeec0-afba-4bc3-943c-5e3c4f0a6a6f",
            "title": "Красноярск № 15",
            "brand": "Дешёвая Аптека",
            "city": "Красноярск",
            "street": "Высотная",
            "buildNumber": "1",
            "office": null,
            "phone": "8 (391) 246-88-08",
            "weekDayTime": "07:00 - 22:00",
            "weekDayBreakTime": "00:00 - 00:00",
            "weekEndTime": "08:00 - 22:00",
            "weekEndBreakTime": "00:00 - 00:00",
            "coordinates": [
                56.019384,
                92.792268
            ],
            "isHeadOffice": false,
            "isCashDispenser": false
        },
        {
            "guid": "6a582b65-03fc-45b3-aaf2-178f3a26b299",
            "title": "Красноярск № 17",
            "brand": "Гармония Здоровья",
            "city": "Красноярск",
            "street": "Высотная",
            "buildNumber": "27",
            "office": null,
            "phone": "8 (391) 247-42-42",
            "weekDayTime": "07:30 - 22:00",
            "weekDayBreakTime": "00:00 - 00:00",
            "weekEndTime": "08:00 - 22:00",
            "weekEndBreakTime": "00:00 - 00:00",
            "coordinates": [
                56.0268,
                92.779422
            ],
            "isHeadOffice": false,
            "isCashDispenser": false
        },
        {
            "guid": "808f9e52-8b9f-4c63-9fa9-761f9585376b",
            "title": "Красноярск № 18",
            "brand": "Гармония Здоровья",
            "city": "Красноярск",
            "street": "Щорса",
            "buildNumber": "44",
            "office": null,
            "phone": "8 (391) 223-56-66",
            "weekDayTime": "09:00 - 22:00",
            "weekDayBreakTime": "00:00 - 00:00",
            "weekEndTime": "09:00 - 22:00",
            "weekEndBreakTime": "00:00 - 00:00",
            "coordinates": [
                55.992291,
                92.954009
            ],
            "isHeadOffice": false,
            "isCashDispenser": false
        },
        {
            "guid": "2db67c25-4d27-437e-a2aa-e900b0c45451",
            "title": "Красноярск № 20",
            "brand": "Гармония Здоровья",
            "city": "Красноярск",
            "street": "Мирошниченко",
            "buildNumber": "6",
            "office": null,
            "phone": "8 (391) 247-39-39",
            "weekDayTime": "08:00 - 22:00",
            "weekDayBreakTime": "00:00 - 00:00",
            "weekEndTime": "08:00 - 22:00",
            "weekEndBreakTime": "00:00 - 00:00",
            "coordinates": [
                56.029748,
                92.756129
            ],
            "isHeadOffice": false,
            "isCashDispenser": false
        },
        {
            "guid": "c8e4aab2-01e4-470a-9d71-3c9845e4dafa",
            "title": "Красноярск № 21",
            "brand": "Дешёвая Аптека",
            "city": "Красноярск",
            "street": "Шевченко",
            "buildNumber": "44",
            "office": null,
            "phone": "8 (391) 988-98-13",
            "weekDayTime": "08:00 - 22:00",
            "weekDayBreakTime": "00:00 - 00:00",
            "weekEndTime": "08:00 - 22:00",
            "weekEndBreakTime": "00:00 - 00:00",
            "coordinates": [
                55.998957,
                93.032846
            ],
            "isHeadOffice": false,
            "isCashDispenser": false
        },
        {
            "guid": "4c47122e-9507-4a49-a0ff-746729271900",
            "title": "Красноярск № 22",
            "brand": "Дешёвая Аптека",
            "city": "Красноярск",
            "street": "Судостроительная",
            "buildNumber": "58",
            "office": null,
            "phone": "8 (391) 269-94-22",
            "weekDayTime": "08:00 - 22:00",
            "weekDayBreakTime": "00:00 - 00:00",
            "weekEndTime": "08:00 - 22:00",
            "weekEndBreakTime": "00:00 - 00:00",
            "coordinates": [
                55.981953,
                92.842025
            ],
            "isHeadOffice": false,
            "isCashDispenser": false
        },
        {
            "guid": "d75c02a0-2b05-40e5-b39d-1a74ac03c9e9",
            "title": "Красноярск № 24",
            "brand": "Дешёвая Аптека",
            "city": "Красноярск",
            "street": "Металлургов",
            "buildNumber": "34",
            "office": null,
            "phone": "8 (391) 299-36-36",
            "weekDayTime": "08:00 - 22:00",
            "weekDayBreakTime": "00:00 - 00:00",
            "weekEndTime": "08:00 - 22:00",
            "weekEndBreakTime": "00:00 - 00:00",
            "coordinates": [
                56.046846,
                92.946805
            ],
            "isHeadOffice": false,
            "isCashDispenser": false
        },
        {
            "guid": "73125d04-0f40-41a4-9ed8-c5935a1d7bdd",
            "title": "Красноярск № 30 Оптика",
            "brand": "Очень Оптика",
            "city": "Красноярск",
            "street": "Металлургов",
            "buildNumber": "10",
            "office": null,
            "phone": "8 (391) 218-40-30",
            "weekDayTime": "09:00 - 21:00",
            "weekDayBreakTime": "00:00 - 00:00",
            "weekEndTime": "09:00 - 21:00",
            "weekEndBreakTime": "00:00 - 00:00",
            "coordinates": [
                56.056398,
                92.9609
            ],
            "isHeadOffice": false,
            "isCashDispenser": false
        },
        {
            "guid": "7807fddc-6e60-4f25-890c-a6f23175f9d4",
            "title": "Красноярск № 32",
            "brand": "Гармония Здоровья",
            "city": "Красноярск",
            "street": "Ленина",
            "buildNumber": "128",
            "office": "",
            "phone": "8 (391) 218-04-44",
            "weekDayTime": "08:00 - 22:00",
            "weekDayBreakTime": "00:00 - 00:00",
            "weekEndTime": "08:00 - 22:00",
            "weekEndBreakTime": "00:00 - 00:00",
            "coordinates": [
                56.012305,
                92.844083
            ],
            "isHeadOffice": false,
            "isCashDispenser": false
        },
        {
            "guid": "e9c169f6-46f3-4be6-9109-abf5c3b0516b",
            "title": "Красноярск № 33",
            "brand": "Дешёвая Аптека",
            "city": "Красноярск",
            "street": "Ленина",
            "buildNumber": "110",
            "office": null,
            "phone": "8 (391) 200-10-60",
            "weekDayTime": "07:00 - 22:00",
            "weekDayBreakTime": "00:00 - 00:00",
            "weekEndTime": "08:00 - 22:00",
            "weekEndBreakTime": "00:00 - 00:00",
            "coordinates": [
                56.012989,
                92.857935
            ],
            "isHeadOffice": false,
            "isCashDispenser": false
        },
        {
            "guid": "cca31113-73cf-46a1-89b4-6eaa426b501a",
            "title": "Красноярск № 34",
            "brand": "Гармония Здоровья",
            "city": "Красноярск",
            "street": "Мартынова",
            "buildNumber": "12",
            "office": null,
            "phone": "8 (391) 200-13-34",
            "weekDayTime": "09:00 - 22:00",
            "weekDayBreakTime": "00:00 - 00:00",
            "weekEndTime": "09:00 - 22:00",
            "weekEndBreakTime": "00:00 - 00:00",
            "coordinates": [
                56.039208,
                92.881875
            ],
            "isHeadOffice": false,
            "isCashDispenser": false
        },
        {
            "guid": "62fdfeea-3d69-4e40-aea0-e2b3ebf57273",
            "title": "Красноярск № 35",
            "brand": "Гармония Здоровья",
            "city": "Красноярск",
            "street": "Мужества",
            "buildNumber": "10",
            "office": null,
            "phone": "8 (391) 257-39-79",
            "weekDayTime": "08:00 - 21:00",
            "weekDayBreakTime": "00:00 - 00:00",
            "weekEndTime": "08:00 - 21:00",
            "weekEndBreakTime": "00:00 - 00:00",
            "coordinates": [
                56.034496,
                92.884345
            ],
            "isHeadOffice": false,
            "isCashDispenser": false
        },
        {
            "guid": "249ddd8b-55bb-4c67-8ce2-94c70fabf6d4",
            "title": "Красноярск № 36",
            "brand": "Дешёвая Аптека",
            "city": "Красноярск",
            "street": "Тотмина",
            "buildNumber": "3",
            "office": null,
            "phone": "8 (391) 218-00-36",
            "weekDayTime": "07:00 - 22:00",
            "weekDayBreakTime": "00:00 - 00:00",
            "weekEndTime": "08:00 - 22:00",
            "weekEndBreakTime": "00:00 - 00:00",
            "coordinates": [
                56.032856,
                92.773628
            ],
            "isHeadOffice": false,
            "isCashDispenser": false
        },
        {
            "guid": "710b7eee-4d3b-45ec-bd4c-926630f2f215",
            "title": "Красноярск № 39",
            "brand": "Гармония Здоровья",
            "city": "Красноярск",
            "street": "Тельмана",
            "buildNumber": "43",
            "office": null,
            "phone": "8 (391) 216-54-00",
            "weekDayTime": "08:00 - 22:00",
            "weekDayBreakTime": "00:00 - 00:00",
            "weekEndTime": "08:00 - 22:00",
            "weekEndBreakTime": "00:00 - 00:00",
            "coordinates": [
                56.048875,
                92.964724
            ],
            "isHeadOffice": false,
            "isCashDispenser": false
        },
        {
            "guid": "aee8fe5d-b34d-41bb-9a07-7f75df15f334",
            "title": "Красноярск № 40",
            "brand": "Аптека Всем",
            "city": "Красноярск",
            "street": "Водопьянова",
            "buildNumber": "8",
            "office": null,
            "phone": "8 (391) 988-94-40",
            "weekDayTime": "07:00 - 22:00",
            "weekDayBreakTime": "00:00 - 00:00",
            "weekEndTime": "08:00 - 22:00",
            "weekEndBreakTime": "00:00 - 00:00",
            "coordinates": [
                56.061177,
                92.910414
            ],
            "isHeadOffice": false,
            "isCashDispenser": false
        },
        {
            "guid": "2965b9b8-1405-417f-a69d-d3cd57953cf6",
            "title": "Красноярск № 40 Оптика",
            "brand": "Очень Оптика",
            "city": "Красноярск",
            "street": "Водопьянова",
            "buildNumber": "8",
            "office": "",
            "phone": "8 (391) 218-13-40",
            "weekDayTime": "09:00 - 21:00",
            "weekDayBreakTime": "00:00 - 00:00",
            "weekEndTime": "09:00 - 21:00",
            "weekEndBreakTime": "00:00 - 00:00",
            "coordinates": [
                56.061118,
                92.910299
            ],
            "isHeadOffice": false,
            "isCashDispenser": false
        },
        {
            "guid": "cbedb9be-b00c-45c8-917d-3f6d7c73dd6e",
            "title": "Красноярск № 41",
            "brand": "Гармония Здоровья",
            "city": "Красноярск",
            "street": "Вильского",
            "buildNumber": "28Д",
            "office": null,
            "phone": "8 (391) 200-22-41",
            "weekDayTime": "08:00 - 22:00",
            "weekDayBreakTime": "00:00 - 00:00",
            "weekEndTime": "08:00 - 22:00",
            "weekEndBreakTime": "00:00 - 00:00",
            "coordinates": [
                56.020813,
                92.758123
            ],
            "isHeadOffice": false,
            "isCashDispenser": false
        },
        {
            "guid": "82681c91-45b8-4c7c-90bd-4b3602422732",
            "title": "Красноярск № 42",
            "brand": "Гармония Здоровья",
            "city": "Красноярск",
            "street": "Анатолия Гладкова",
            "buildNumber": "13",
            "office": null,
            "phone": "8 (391) 986-98-42",
            "weekDayTime": "08:00 - 22:00",
            "weekDayBreakTime": "00:00 - 00:00",
            "weekEndTime": "08:00 - 22:00",
            "weekEndBreakTime": "00:00 - 00:00",
            "coordinates": [
                55.988213,
                92.880087
            ],
            "isHeadOffice": false,
            "isCashDispenser": false
        },
        {
            "guid": "49e5623c-8a95-47fa-b9ed-872fe1e549a7",
            "title": "Красноярск № 43",
            "brand": "Дешёвая Аптека",
            "city": "Красноярск",
            "street": "Александра Матросова",
            "buildNumber": "9",
            "office": null,
            "phone": "8 (391) 986-98-43",
            "weekDayTime": "08:00 - 22:00",
            "weekDayBreakTime": "00:00 - 00:00",
            "weekEndTime": "08:00 - 22:00",
            "weekEndBreakTime": "00:00 - 00:00",
            "coordinates": [
                55.987326,
                92.888495
            ],
            "isHeadOffice": false,
            "isCashDispenser": false
        },
        {
            "guid": "553e9177-8ad7-4046-b082-616e86bb9513",
            "title": "Красноярск № 46",
            "brand": "Гармония Здоровья",
            "city": "Красноярск",
            "street": "Карла Маркса",
            "buildNumber": "133",
            "office": null,
            "phone": "8 (391) 218-16-46",
            "weekDayTime": "08:00 - 22:00",
            "weekDayBreakTime": "00:00 - 00:00",
            "weekEndTime": "08:00 - 22:00",
            "weekEndBreakTime": "00:00 - 00:00",
            "coordinates": [
                56.009738,
                92.863307
            ],
            "isHeadOffice": false,
            "isCashDispenser": false
        },
        {
            "guid": "e1bfd9eb-5c8c-4f74-80f5-7ba8630287ce",
            "title": "Красноярск № 49",
            "brand": "Дешёвая Аптека",
            "city": "Красноярск",
            "street": "60 лет Октября",
            "buildNumber": "43",
            "office": null,
            "phone": "8 (391) 986-98-49",
            "weekDayTime": "08:00 - 22:00",
            "weekDayBreakTime": "00:00 - 00:00",
            "weekEndTime": "08:00 - 22:00",
            "weekEndBreakTime": "00:00 - 00:00",
            "coordinates": [
                55.977662,
                92.852284
            ],
            "isHeadOffice": false,
            "isCashDispenser": false
        },
        {
            "guid": "2d12cb82-0df2-4c8d-a181-62851a7d0f94",
            "title": "Красноярск № 50",
            "brand": "Гармония Здоровья",
            "city": "Красноярск",
            "street": "Железнодорожников",
            "buildNumber": "14",
            "office": null,
            "phone": "8 (391) 200-16-50",
            "weekDayTime": "08:00 - 22:00",
            "weekDayBreakTime": "00:00 - 00:00",
            "weekEndTime": "08:00 - 22:00",
            "weekEndBreakTime": "00:00 - 00:00",
            "coordinates": [
                56.019485,
                92.843903
            ],
            "isHeadOffice": false,
            "isCashDispenser": false
        },
        {
            "guid": "97178c64-7196-41a5-abcd-0b44bdc05ca6",
            "title": "Красноярск № 52",
            "brand": "Дешёвая Аптека",
            "city": "Красноярск",
            "street": "Тотмина",
            "buildNumber": "8",
            "office": null,
            "phone": "8 (391) 218-15-52",
            "weekDayTime": "08:00 - 22:00",
            "weekDayBreakTime": "00:00 - 00:00",
            "weekEndTime": "08:00 - 22:00",
            "weekEndBreakTime": "00:00 - 00:00",
            "coordinates": [
                56.032459,
                92.775883
            ],
            "isHeadOffice": false,
            "isCashDispenser": false
        },
        {
            "guid": "2d195f2a-9988-4fe3-a9ef-ebbfd664836b",
            "title": "Красноярск № 57",
            "brand": "Аптека Всем",
            "city": "Красноярск",
            "street": "Щорса",
            "buildNumber": "76",
            "office": null,
            "phone": "8 (391) 986-98-57",
            "weekDayTime": "08:00 - 22:00",
            "weekDayBreakTime": "00:00 - 00:00",
            "weekEndTime": "08:00 - 22:00",
            "weekEndBreakTime": "00:00 - 00:00",
            "coordinates": [
                55.989502,
                92.943796
            ],
            "isHeadOffice": false,
            "isCashDispenser": false
        },
        {
            "guid": "1b6a8872-3a9c-4a20-8089-4a122390dc76",
            "title": "Красноярск № 59",
            "brand": "Дешёвая Аптека",
            "city": "Красноярск",
            "street": "Красноярский рабочий",
            "buildNumber": "79",
            "office": null,
            "phone": "8 (391) 986-98-59",
            "weekDayTime": "07:30 - 22:00",
            "weekDayBreakTime": "00:00 - 00:00",
            "weekEndTime": "08:00 - 22:00",
            "weekEndBreakTime": "00:00 - 00:00",
            "coordinates": [
                56.004982,
                92.942107
            ],
            "isHeadOffice": false,
            "isCashDispenser": false
        },
        {
            "guid": "2b5fac9a-a4bc-4b94-be2c-22fb3527a547",
            "title": "Красноярск № 60",
            "brand": "Гармония Здоровья",
            "city": "Красноярск",
            "street": "Урванцева",
            "buildNumber": "34",
            "office": null,
            "phone": "8 (391) 200-28-03",
            "weekDayTime": "08:00 - 21:00",
            "weekDayBreakTime": "00:00 - 00:00",
            "weekEndTime": "08:00 - 21:00",
            "weekEndBreakTime": "00:00 - 00:00",
            "coordinates": [
                56.065625,
                92.91584
            ],
            "isHeadOffice": false,
            "isCashDispenser": false
        },
        {
            "guid": "10c85bc4-dec0-4f8d-b765-e110c441882c",
            "title": "Красноярск № 63",
            "brand": "Гармония Здоровья",
            "city": "Красноярск",
            "street": "Медицинский переулок",
            "buildNumber": "5/1",
            "office": null,
            "phone": "8 (391) 988-97-63",
            "weekDayTime": "08:00 - 22:00",
            "weekDayBreakTime": "00:00 - 00:00",
            "weekEndTime": "08:00 - 22:00",
            "weekEndBreakTime": "00:00 - 00:00",
            "coordinates": [
                55.97673,
                92.84322
            ],
            "isHeadOffice": false,
            "isCashDispenser": false
        },
        {
            "guid": "0084fb08-0468-40ae-ad04-6bb3c99399d9",
            "title": "Красноярск № 64",
            "brand": "Аптека Всем",
            "city": "Красноярск",
            "street": "Мартынова",
            "buildNumber": "24",
            "office": null,
            "phone": "8 (391) 218-18-90",
            "weekDayTime": "08:00 - 22:00",
            "weekDayBreakTime": "00:00 - 00:00",
            "weekEndTime": "08:00 - 22:00",
            "weekEndBreakTime": "00:00 - 00:00",
            "coordinates": [
                56.038705,
                92.872595
            ],
            "isHeadOffice": false,
            "isCashDispenser": false
        },
        {
            "guid": "0488a75e-4cb6-4602-b1e4-fab6892b8c7e",
            "title": "Красноярск № 67",
            "brand": "Дешёвая Аптека",
            "city": "Красноярск",
            "street": "Свободный",
            "buildNumber": "29",
            "office": null,
            "phone": "8 (391) 216-45-85",
            "weekDayTime": "08:00 - 22:00",
            "weekDayBreakTime": "00:00 - 00:00",
            "weekEndTime": "08:00 - 22:00",
            "weekEndBreakTime": "00:00 - 00:00",
            "coordinates": [
                56.02354,
                92.822828
            ],
            "isHeadOffice": false,
            "isCashDispenser": false
        },
        {
            "guid": "7bedf5e9-dd2f-4b58-8958-c0676ed03acf",
            "title": "Красноярск № 70",
            "brand": "Дешёвая Аптека",
            "city": "Красноярск",
            "street": "Мичурина",
            "buildNumber": "14ж",
            "office": null,
            "phone": "7 (391) 988-96-70",
            "weekDayTime": "07:30 - 22:00",
            "weekDayBreakTime": "00:00 - 00:00",
            "weekEndTime": "08:00 - 22:00",
            "weekEndBreakTime": "00:00 - 00:00",
            "coordinates": [
                56.004922,
                92.965023
            ],
            "isHeadOffice": false,
            "isCashDispenser": false
        },
        {
            "guid": "0da28be8-d0f9-4a43-bf97-5c90c0a98030",
            "title": "Красноярск № 71",
            "brand": "Гармония Здоровья",
            "city": "Красноярск",
            "street": "60 лет образования СССР",
            "buildNumber": "24А",
            "office": null,
            "phone": "8 (391) 202-98-71",
            "weekDayTime": "08:00 - 22:00",
            "weekDayBreakTime": "00:00 - 00:00",
            "weekEndTime": "08:00 - 22:00",
            "weekEndBreakTime": "00:00 - 00:00",
            "coordinates": [
                56.115228,
                92.918643
            ],
            "isHeadOffice": false,
            "isCashDispenser": false
        },
        {
            "guid": "c0c9f2c8-c059-4867-9ed6-9de3dcd839a2",
            "title": "Красноярск № 73",
            "brand": "Гармония Здоровья",
            "city": "Красноярск",
            "street": "Высотная",
            "buildNumber": "13г",
            "office": null,
            "phone": "8 (391) 229-71-73",
            "weekDayTime": "08:00 - 22:00",
            "weekDayBreakTime": "00:00 - 00:00",
            "weekEndTime": "08:00 - 22:00",
            "weekEndBreakTime": "00:00 - 00:00",
            "coordinates": [
                56.022881,
                92.786465
            ],
            "isHeadOffice": false,
            "isCashDispenser": false
        },
        {
            "guid": "3df70bda-be7b-49b3-97e1-98c3a2e071b9",
            "title": "Красноярск № 75",
            "brand": "Дешёвая Аптека",
            "city": "Красноярск",
            "street": "Амурская",
            "buildNumber": "32",
            "office": null,
            "phone": "8 (391) 223-22-24",
            "weekDayTime": "08:00 - 22:00",
            "weekDayBreakTime": "00:00 - 00:00",
            "weekEndTime": "08:00 - 22:00",
            "weekEndBreakTime": "00:00 - 00:00",
            "coordinates": [
                55.988288,
                93.014385
            ],
            "isHeadOffice": false,
            "isCashDispenser": false
        },
        {
            "guid": "e0bbfbf4-2ee5-4403-bbc6-67a5702d909b",
            "title": "Красноярск № 76",
            "brand": "Дешёвая Аптека",
            "city": "Красноярск",
            "street": "Павлова",
            "buildNumber": "33ж",
            "office": null,
            "phone": "8 (391) 986-97-76",
            "weekDayTime": "08:00 - 22:00",
            "weekDayBreakTime": "00:00 - 00:00",
            "weekEndTime": "08:00 - 22:00",
            "weekEndBreakTime": "00:00 - 00:00",
            "coordinates": [
                55.994703,
                92.951099
            ],
            "isHeadOffice": false,
            "isCashDispenser": true
        },
        {
            "guid": "68afc1b2-50df-48ae-9f5f-476ac76fe934",
            "title": "Красноярск № 77",
            "brand": "Дешёвая Аптека",
            "city": "Красноярск",
            "street": "Ястынская",
            "buildNumber": "19а",
            "office": null,
            "phone": "8 (391) 216-50-77",
            "weekDayTime": "08:00 - 22:00",
            "weekDayBreakTime": "00:00 - 00:00",
            "weekEndTime": "08:00 - 22:00",
            "weekEndBreakTime": "00:00 - 00:00",
            "coordinates": [
                56.062851,
                92.947065
            ],
            "isHeadOffice": false,
            "isCashDispenser": true
        },
        {
            "guid": "fba90dd6-e9f4-48e8-9dde-ff74a5721f7d",
            "title": "Красноярск № 82",
            "brand": "Дешёвая Аптека",
            "city": "Красноярск",
            "street": "Судостроительная",
            "buildNumber": "95",
            "office": null,
            "phone": "8 (391) 986-66-82",
            "weekDayTime": "08:00 - 22:00",
            "weekDayBreakTime": "00:00 - 00:00",
            "weekEndTime": "08:00 - 22:00",
            "weekEndBreakTime": "00:00 - 00:00",
            "coordinates": [
                55.98495,
                92.849751
            ],
            "isHeadOffice": false,
            "isCashDispenser": true
        },
        {
            "guid": "4c9d714e-5658-4ba2-95d2-5fc18e8364e0",
            "title": "Красноярск № 83",
            "brand": "Дешёвая Аптека",
            "city": "Красноярск",
            "street": "Парижской коммуны",
            "buildNumber": "14",
            "office": null,
            "phone": "8 (391) 218-40-83",
            "weekDayTime": "08:00 - 22:00",
            "weekDayBreakTime": "00:00 - 00:00",
            "weekEndTime": "08:00 - 22:00",
            "weekEndBreakTime": "00:00 - 00:00",
            "coordinates": [
                56.010186,
                92.881839
            ],
            "isHeadOffice": false,
            "isCashDispenser": true
        },
        {
            "guid": "da6bfd38-8a5e-4e38-b971-67a0b6ba3843",
            "title": "Красноярск № 85",
            "brand": "Дешёвая Аптека",
            "city": "Красноярск",
            "street": "Московская",
            "buildNumber": "200д",
            "office": "",
            "phone": "8 (391) 332-92-85",
            "weekDayTime": "08:00 - 22:00",
            "weekDayBreakTime": "00:00 - 00:00",
            "weekEndTime": "08:00 - 22:00",
            "weekEndBreakTime": "00:00 - 00:00",
            "coordinates": [
                56.170355,
                92.681092
            ],
            "isHeadOffice": false,
            "isCashDispenser": true
        },
        {
            "guid": "cfea92a8-99ed-4f53-9dea-01b6501cbddc",
            "title": "Красноярск № 86",
            "brand": "Гармония Здоровья",
            "city": "Красноярск",
            "street": "Полтавская",
            "buildNumber": "38/22",
            "office": null,
            "phone": "+7 391 986 93 86",
            "weekDayTime": "08:00 - 22:00",
            "weekDayBreakTime": "00:00 - 00:00",
            "weekEndTime": "08:00 - 22:00",
            "weekEndBreakTime": "00:00 - 00:00",
            "coordinates": [
                55.985126,
                92.868382
            ],
            "isHeadOffice": false,
            "isCashDispenser": true
        },
        {
            "guid": "5705948c-a6b1-4028-8e04-2fbf62e901ab",
            "title": "Красноярск № 87",
            "brand": "Гармония Здоровья",
            "city": "Красноярск",
            "street": "Курчатова",
            "buildNumber": "17г",
            "office": null,
            "phone": "8 (391) 216-33-87",
            "weekDayTime": "09:00 - 22:00",
            "weekDayBreakTime": "00:00 - 00:00",
            "weekEndTime": "09:00 - 22:00",
            "weekEndBreakTime": "00:00 - 00:00",
            "coordinates": [
                56.018172,
                92.771651
            ],
            "isHeadOffice": false,
            "isCashDispenser": true
        },
        {
            "guid": "c87e8b71-7703-4421-a516-32ee40908e62",
            "title": "Красноярск № 88",
            "brand": "Дешёвая Аптека",
            "city": "Красноярск",
            "street": "Новостроек",
            "buildNumber": "7а",
            "office": null,
            "phone": "8(391) 258-05-88",
            "weekDayTime": "08:00 - 22:00",
            "weekDayBreakTime": "00:00 - 00:00",
            "weekEndTime": "08:00 - 22:00",
            "weekEndBreakTime": "00:00 - 00:00",
            "coordinates": [
                56.068434,
                92.84888
            ],
            "isHeadOffice": false,
            "isCashDispenser": true
        },
        {
            "guid": "f69b4a2e-9d14-4e03-97b3-29fab41f1046",
            "title": "Красноярск № 89",
            "brand": "Дешёвая Аптека",
            "city": "Красноярск",
            "street": "ул. 60 лет Октября",
            "buildNumber": "55",
            "office": null,
            "phone": "7 (391) 986-97-89",
            "weekDayTime": "08:00 - 22:00",
            "weekDayBreakTime": "00:00 - 00:00",
            "weekEndTime": "08:00 - 22:00",
            "weekEndBreakTime": "00:00 - 00:00",
            "coordinates": [
                55.97877,
                92.86338
            ],
            "isHeadOffice": false,
            "isCashDispenser": true
        },
        {
            "guid": "fde45410-9815-4c6c-93bb-411aea7b1c10",
            "title": "Красноярск № 90",
            "brand": "Дешёвая Аптека",
            "city": "Красноярск",
            "street": "Вавилова",
            "buildNumber": "49",
            "office": null,
            "phone": "7 (391) 986-44-90",
            "weekDayTime": "08:00 - 22:00",
            "weekDayBreakTime": "00:00 - 00:00",
            "weekEndTime": "08:00 - 22:00",
            "weekEndBreakTime": "00:00 - 00:00",
            "coordinates": [
                56.001262,
                92.94685
            ],
            "isHeadOffice": false,
            "isCashDispenser": true
        },
        {
            "guid": "5562ae24-db88-486b-a8ab-f201d2dcd884",
            "title": "Красноярск № 94",
            "brand": "Дешёвая Аптека",
            "city": "Красноярск",
            "street": "Павлова",
            "buildNumber": "46/1",
            "office": null,
            "phone": "+7 (391) 986-98-94",
            "weekDayTime": "08:00 - 22:00",
            "weekDayBreakTime": "00:00 - 00:00",
            "weekEndTime": "08:00 - 22:00",
            "weekEndBreakTime": "00:00 - 00:00",
            "coordinates": [
                55.99505,
                92.9498
            ],
            "isHeadOffice": false,
            "isCashDispenser": true
        },
        {
            "guid": "bcb41d4f-811b-4725-9aac-200972e8832c",
            "title": "Красноярск № 96",
            "brand": "Дешёвая Аптека",
            "city": "Красноярск",
            "street": "пр-т им. газеты Красноярский рабочий",
            "buildNumber": "187",
            "office": null,
            "phone": "+7 (391) 988-93-96",
            "weekDayTime": "08:00 - 22:00",
            "weekDayBreakTime": "00:00 - 00:00",
            "weekEndTime": "08:00 - 22:00",
            "weekEndBreakTime": "00:00 - 00:00",
            "coordinates": [
                55.992266,
                92.890615
            ],
            "isHeadOffice": false,
            "isCashDispenser": true
        }
    ],
    "Курагино пос.": [
        {
            "guid": "2e6d39b0-1ddf-402c-a6cf-b01d83df786c",
            "title": "Абакан № 15",
            "brand": "Дешёвая Аптека",
            "city": "Курагино пос.",
            "street": "Гагарина переулок",
            "buildNumber": "24",
            "office": null,
            "phone": "8 (39136) 228-16",
            "weekDayTime": "08:00 - 21:00",
            "weekDayBreakTime": "00:00 - 00:00",
            "weekEndTime": "08:00 - 21:00",
            "weekEndBreakTime": "00:00 - 00:00",
            "coordinates": [
                53.890924,
                92.68138
            ],
            "isHeadOffice": false,
            "isCashDispenser": false
        }
    ],
    "Кызыл": [
        {
            "guid": "d716e9ce-e684-4f4e-b232-ecd6a79bb6fc",
            "title": "Тыва № 01",
            "brand": "Дешёвая Аптека",
            "city": "Кызыл",
            "street": "Кочетова",
            "buildNumber": "68",
            "office": null,
            "phone": "+73942277071",
            "weekDayTime": "08:00 - 22:00",
            "weekDayBreakTime": "00:00 - 00:00",
            "weekEndTime": "08:00 - 22:00",
            "weekEndBreakTime": "00:00 - 00:00",
            "coordinates": [
                51.718712,
                94.431487
            ],
            "isHeadOffice": false,
            "isCashDispenser": false
        },
        {
            "guid": "9632c29f-11cc-4dc5-bf53-ff7ca4fe2dfd",
            "title": "Тыва № 02",
            "brand": "Дешёвая Аптека",
            "city": "Кызыл",
            "street": "Тувинских добровольцев",
            "buildNumber": "25",
            "office": null,
            "phone": "7 (391) 988-94-02",
            "weekDayTime": "08:00 - 22:00",
            "weekDayBreakTime": "00:00 - 00:00",
            "weekEndTime": "08:00 - 22:00",
            "weekEndBreakTime": "00:00 - 00:00",
            "coordinates": [
                51.394843,
                91.26762
            ],
            "isHeadOffice": false,
            "isCashDispenser": false
        },
        {
            "guid": "fb407399-92ff-45dc-ad06-a995a864b842",
            "title": "Тыва № 03",
            "brand": "Дешёвая Аптека",
            "city": "Кызыл",
            "street": "Комсомольская",
            "buildNumber": "30",
            "office": null,
            "phone": "7 (391) 988-94-03",
            "weekDayTime": "08:00 - 22:00",
            "weekDayBreakTime": "00:00 - 00:00",
            "weekEndTime": "08:00 - 22:00",
            "weekEndBreakTime": "00:00 - 00:00",
            "coordinates": [
                51.718132,
                94.445015
            ],
            "isHeadOffice": false,
            "isCashDispenser": false
        },
        {
            "guid": "31933553-ed04-4a8b-8474-ebaa74fea81c",
            "title": "Тыва № 04",
            "brand": "Дешёвая Аптека",
            "city": "Кызыл",
            "street": "Кочетова",
            "buildNumber": "47",
            "office": null,
            "phone": "7 (391) 988-96-04",
            "weekDayTime": "08:00 - 22:00",
            "weekDayBreakTime": "00:00 - 00:00",
            "weekEndTime": "08:00 - 22:00",
            "weekEndBreakTime": "00:00 - 00:00",
            "coordinates": [
                51.719248,
                94.440946
            ],
            "isHeadOffice": false,
            "isCashDispenser": false
        },
        {
            "guid": "69d23c14-14f9-4897-a66b-9e7488123e36",
            "title": "Тыва № 05",
            "brand": "Дешёвая Аптека",
            "city": "Кызыл",
            "street": "Ооржака Лопсанчапа",
            "buildNumber": "25",
            "office": "1-2",
            "phone": "+7(391)988-94-05",
            "weekDayTime": "08:00 - 22:00",
            "weekDayBreakTime": "00:00 - 00:00",
            "weekEndTime": "08:00 - 22:00",
            "weekEndBreakTime": "00:00 - 00:00",
            "coordinates": [
                51.701367,
                94.419377
            ],
            "isHeadOffice": false,
            "isCashDispenser": false
        },
        {
            "guid": "fd939aaf-db4c-4133-9955-4bf830512e5b",
            "title": "Тыва № 07",
            "brand": "Дешёвая Аптека",
            "city": "Кызыл",
            "street": "Кечил-оола",
            "buildNumber": "3/1",
            "office": null,
            "phone": "7 (391) 986-99-07 ",
            "weekDayTime": "08:00 - 22:00",
            "weekDayBreakTime": "00:00 - 00:00",
            "weekEndTime": "08:00 - 22:00",
            "weekEndBreakTime": "00:00 - 00:00",
            "coordinates": [
                51.707702,
                94.429232
            ],
            "isHeadOffice": false,
            "isCashDispenser": false
        }
    ],
    "Лесосибирск": [
        {
            "guid": "96220292-059d-47a6-8dfc-ca6e131e0f17",
            "title": "Красноярск № 08",
            "brand": "Гармония Здоровья",
            "city": "Лесосибирск",
            "street": "Мира",
            "buildNumber": "1А",
            "office": null,
            "phone": "8 (391) 988-95-98",
            "weekDayTime": "09:00 - 22:00",
            "weekDayBreakTime": "00:00 - 00:00",
            "weekEndTime": "09:00 - 22:00",
            "weekEndBreakTime": "00:00 - 00:00",
            "coordinates": [
                58.220951,
                92.505517
            ],
            "isHeadOffice": false,
            "isCashDispenser": false
        },
        {
            "guid": "5ea893ed-57df-4fc2-86b0-621de175243a",
            "title": "Красноярск № 54",
            "brand": "Аптека Всем",
            "city": "Лесосибирск",
            "street": "Горького",
            "buildNumber": "27",
            "office": null,
            "phone": "8 (391) 988-95-54",
            "weekDayTime": "08:00 - 22:00",
            "weekDayBreakTime": "00:00 - 00:00",
            "weekEndTime": "08:00 - 22:00",
            "weekEndBreakTime": "00:00 - 00:00",
            "coordinates": [
                58.243799,
                92.479097
            ],
            "isHeadOffice": false,
            "isCashDispenser": false
        },
        {
            "guid": "90037065-aad5-4e13-b754-f9064ee0d9e2",
            "title": "Красноярск № 81",
            "brand": "Дешёвая Аптека",
            "city": "Лесосибирск",
            "street": "Промышленная",
            "buildNumber": "37",
            "office": null,
            "phone": "8 (391) 986-86-81",
            "weekDayTime": "08:00 - 22:00",
            "weekDayBreakTime": "00:00 - 00:00",
            "weekEndTime": "08:00 - 22:00",
            "weekEndBreakTime": "00:00 - 00:00",
            "coordinates": [
                58.294592,
                92.392769
            ],
            "isHeadOffice": false,
            "isCashDispenser": true
        }
    ],
    "Минусинск": [
        {
            "guid": "f2213274-40b1-4fa5-abe2-ea2f2ccef7c8",
            "title": "Абакан № 06",
            "brand": "Дешёвая Аптека",
            "city": "Минусинск",
            "street": "Абаканская",
            "buildNumber": "51",
            "office": null,
            "phone": "8 (39132) 527-77",
            "weekDayTime": "08:00 - 22:00",
            "weekDayBreakTime": "00:00 - 00:00",
            "weekEndTime": "08:00 - 22:00",
            "weekEndBreakTime": "00:00 - 00:00",
            "coordinates": [
                53.692223,
                91.671147
            ],
            "isHeadOffice": false,
            "isCashDispenser": false
        },
        {
            "guid": "1fe89f6d-32d7-4983-a818-d01f7b9372b6",
            "title": "Абакан № 08",
            "brand": "Дешёвая Аптека",
            "city": "Минусинск",
            "street": "Ленина",
            "buildNumber": "81/2",
            "office": null,
            "phone": "8 (39132) 502-20",
            "weekDayTime": "08:00 - 20:00",
            "weekDayBreakTime": "00:00 - 00:00",
            "weekEndTime": "08:00 - 20:00",
            "weekEndBreakTime": "00:00 - 00:00",
            "coordinates": [
                53.710047,
                91.689828
            ],
            "isHeadOffice": false,
            "isCashDispenser": false
        },
        {
            "guid": "854f75cd-121c-4ca9-a6a7-047e523ca750",
            "title": "Абакан № 19",
            "brand": "Аптека Всем",
            "city": "Минусинск",
            "street": "Абаканская",
            "buildNumber": "62",
            "office": null,
            "phone": "8 (39132) 231-38",
            "weekDayTime": "08:00 - 22:00",
            "weekDayBreakTime": "00:00 - 00:00",
            "weekEndTime": "08:00 - 22:00",
            "weekEndBreakTime": "00:00 - 00:00",
            "coordinates": [
                53.690984,
                91.665062
            ],
            "isHeadOffice": false,
            "isCashDispenser": false
        },
        {
            "guid": "82ce19c2-f5bd-45bb-9b52-ed15e6425e83",
            "title": "Абакан № 35",
            "brand": "Дешёвая Аптека",
            "city": "Минусинск",
            "street": "Абаканская",
            "buildNumber": "65-1",
            "office": null,
            "phone": "83913229021",
            "weekDayTime": "08:00 - 21:00",
            "weekDayBreakTime": "00:00 - 00:00",
            "weekEndTime": "08:00 - 21:00",
            "weekEndBreakTime": "00:00 - 00:00",
            "coordinates": [
                53.68755,
                91.660696
            ],
            "isHeadOffice": false,
            "isCashDispenser": true
        },
        {
            "guid": "d68b3f14-0c44-46f0-a815-84fc9399303e",
            "title": "Абакан № 36",
            "brand": "«‎ДА»‎ аптека",
            "city": "Минусинск",
            "street": "Комсомольская",
            "buildNumber": "39",
            "office": null,
            "phone": "83913229008",
            "weekDayTime": "08:00 - 22:00",
            "weekDayBreakTime": "00:00 - 00:00",
            "weekEndTime": "08:00 - 22:00",
            "weekEndBreakTime": "00:00 - 00:00",
            "coordinates": [
                53.713212,
                91.691625
            ],
            "isHeadOffice": false,
            "isCashDispenser": true
        },
        {
            "guid": "39e1cd6c-1558-4038-852a-ea5e2c824702",
            "title": "Абакан № 43",
            "brand": "«‎ДА»‎ аптека",
            "city": "Минусинск",
            "street": "Народная",
            "buildNumber": "31",
            "office": "119",
            "phone": "8 (391) 392-32-54",
            "weekDayTime": "08:00 - 22:00",
            "weekDayBreakTime": "00:00 - 00:00",
            "weekEndTime": "08:00 - 22:00",
            "weekEndBreakTime": "00:00 - 00:00",
            "coordinates": [
                53.6967,
                91.668098
            ],
            "isHeadOffice": false,
            "isCashDispenser": true
        }
    ],
    "Москва": [
        {
            "guid": "9ef4e9c4-4c11-4afd-af76-f130dbbc0c1d",
            "title": "АСЦ Москва №2",
            "brand": null,
            "city": "Москва",
            "street": "Пресненский Вал",
            "buildNumber": "д. 8, корп. 3, пом. 5",
            "office": null,
            "phone": "8-927-503-94-04",
            "weekDayTime": "09:00 - 18:00",
            "weekDayBreakTime": "00:00 - 00:00",
            "weekEndTime": "09:00 - 18:00",
            "weekEndBreakTime": "00:00 - 00:00",
            "coordinates": [
                0.0,
                0.0
            ],
            "isHeadOffice": false,
            "isCashDispenser": false
        },
        {
            "guid": "fa2015f0-c38c-4a1e-a554-5285bff0147c",
            "title": "Москва № 07",
            "brand": "Гармония Здоровья",
            "city": "Москва",
            "street": "вн. тер. г. поселение Вороновское, д. Ясенки",
            "buildNumber": "121",
            "office": null,
            "phone": "7 (495) 859-22-07",
            "weekDayTime": "08:30 - 21:30",
            "weekDayBreakTime": "00:00 - 00:00",
            "weekEndTime": "08:30 - 21:30",
            "weekEndBreakTime": "00:00 - 00:00",
            "coordinates": [
                55.302781,
                37.211857
            ],
            "isHeadOffice": false,
            "isCashDispenser": false
        },
        {
            "guid": "1b36396b-5295-4cd5-8b56-2b8e5e31b19a",
            "title": "Москва № 08",
            "brand": "Гармония Здоровья",
            "city": "Москва",
            "street": "д. Толстопальцево, ул. Советская",
            "buildNumber": "6",
            "office": null,
            "phone": "8 (499) 653-86-08",
            "weekDayTime": "08:00 - 22:00",
            "weekDayBreakTime": "00:00 - 00:00",
            "weekEndTime": "08:00 - 22:00",
            "weekEndBreakTime": "00:00 - 00:00",
            "coordinates": [
                55.604622,
                37.190078
            ],
            "isHeadOffice": false,
            "isCashDispenser": false
        },
        {
            "guid": "6f3db3fa-7bea-4956-9fcc-6a98b908db76",
            "title": "Москва № 09",
            "brand": "«‎ДА»‎ аптека",
            "city": "Москва",
            "street": "рп. Октябрьский, ул. Ленина",
            "buildNumber": "55а",
            "office": null,
            "phone": "8 (499) 653-70-09",
            "weekDayTime": "08:00 - 21:00",
            "weekDayBreakTime": "00:00 - 00:00",
            "weekEndTime": "08:00 - 21:00",
            "weekEndBreakTime": "00:00 - 00:00",
            "coordinates": [
                55.614654,
                37.9686
            ],
            "isHeadOffice": false,
            "isCashDispenser": false
        }
    ],
    "Нефтеюганск": [
        {
            "guid": "b48569ee-60cb-434e-8f53-ea87481272e1",
            "title": "Тюмень № 02",
            "brand": "Гармония Здоровья",
            "city": "Нефтеюганск",
            "street": "7 мкр ",
            "buildNumber": "1",
            "office": null,
            "phone": "8 (346) 370-01-02",
            "weekDayTime": "09:00 - 21:00",
            "weekDayBreakTime": "00:00 - 00:00",
            "weekEndTime": "09:00 - 21:00",
            "weekEndBreakTime": "00:00 - 00:00",
            "coordinates": [
                61.090161,
                72.620993
            ],
            "isHeadOffice": false,
            "isCashDispenser": false
        }
    ],
    "Новороссийск": [
        {
            "guid": "31807919-dd5d-4462-a779-e92b46b417c9",
            "title": "Сочи № 16",
            "brand": "Дешёвая Аптека",
            "city": "Новороссийск",
            "street": "Советов",
            "buildNumber": "22",
            "office": null,
            "phone": "8 (862) 555-28-16",
            "weekDayTime": "08:00 - 22:00",
            "weekDayBreakTime": "00:00 - 00:00",
            "weekEndTime": "08:00 - 22:00",
            "weekEndBreakTime": "00:00 - 00:00",
            "coordinates": [
                44.72335,
                37.76967
            ],
            "isHeadOffice": false,
            "isCashDispenser": false
        }
    ],
    "Новосибирск": [
        {
            "guid": "02c3b021-3428-440d-9346-b143b112e5a2",
            "title": "Новосибирск № 03",
            "brand": "Гармония Здоровья",
            "city": "Новосибирск",
            "street": "Зорге",
            "buildNumber": "191",
            "office": null,
            "phone": "8 (383) 388-87-03",
            "weekDayTime": "08:00 - 22:00",
            "weekDayBreakTime": "00:00 - 00:00",
            "weekEndTime": "08:00 - 22:00",
            "weekEndBreakTime": "00:00 - 00:00",
            "coordinates": [
                54.935017,
                82.915956
            ],
            "isHeadOffice": false,
            "isCashDispenser": true
        },
        {
            "guid": "0ab64853-ce12-49c6-936a-fb383c255403",
            "title": "Новосибирск № 05",
            "brand": "Гармония Здоровья",
            "city": "Новосибирск",
            "street": "Дачная",
            "buildNumber": "38",
            "office": null,
            "phone": "8 (383) 388‒84‒05",
            "weekDayTime": "08:00 - 22:00",
            "weekDayBreakTime": "00:00 - 00:00",
            "weekEndTime": "08:00 - 22:00",
            "weekEndBreakTime": "00:00 - 00:00",
            "coordinates": [
                55.060224,
                82.905949
            ],
            "isHeadOffice": false,
            "isCashDispenser": true
        },
        {
            "guid": "0acf8d99-9d2a-44a2-8e21-c17d469b0464",
            "title": "Новосибирск № 06",
            "brand": "Дешёвая Аптека",
            "city": "Новосибирск",
            "street": "Шукшина",
            "buildNumber": "7 корп. 1",
            "office": null,
            "phone": "8 (383) 388-84-06",
            "weekDayTime": "08:00 - 22:00",
            "weekDayBreakTime": "00:00 - 00:00",
            "weekEndTime": "08:00 - 22:00",
            "weekEndBreakTime": "00:00 - 00:00",
            "coordinates": [
                54.938896,
                83.123072
            ],
            "isHeadOffice": false,
            "isCashDispenser": true
        },
        {
            "guid": "7577ca44-180f-492b-849a-46bc8be574d7",
            "title": "Новосибирск № 16",
            "brand": "Гармония Здоровья",
            "city": "Новосибирск",
            "street": "Дуси Ковальчук",
            "buildNumber": "89",
            "office": null,
            "phone": "8 (383) 388-73-16",
            "weekDayTime": "08:00 - 21:00",
            "weekDayBreakTime": "00:00 - 00:00",
            "weekEndTime": "08:00 - 21:00",
            "weekEndBreakTime": "00:00 - 00:00",
            "coordinates": [
                55.055749,
                82.902041
            ],
            "isHeadOffice": false,
            "isCashDispenser": true
        },
        {
            "guid": "ce176b84-06f0-48ac-ba26-be530bafb9a6",
            "title": "Новосибирск № 17",
            "brand": "Гармония Здоровья",
            "city": "Новосибирск",
            "street": "Адриена Лежена",
            "buildNumber": "16",
            "office": null,
            "phone": "8 (383) 383-62-17",
            "weekDayTime": "08:00 - 22:00",
            "weekDayBreakTime": "00:00 - 00:00",
            "weekEndTime": "08:00 - 22:00",
            "weekEndBreakTime": "00:00 - 00:00",
            "coordinates": [
                55.043572,
                82.979709
            ],
            "isHeadOffice": false,
            "isCashDispenser": true
        },
        {
            "guid": "14ce395e-7457-4252-b5ad-d72bd932e800",
            "title": "Новосибирск № 20",
            "brand": "Гармония Здоровья",
            "city": "Новосибирск",
            "street": "Дачная",
            "buildNumber": "60 корп.14",
            "office": null,
            "phone": "8 (383) 244-96-20",
            "weekDayTime": "08:00 - 21:00",
            "weekDayBreakTime": "00:00 - 00:00",
            "weekEndTime": "08:00 - 21:00",
            "weekEndBreakTime": "00:00 - 00:00",
            "coordinates": [
                55.065329,
                82.900667
            ],
            "isHeadOffice": false,
            "isCashDispenser": true
        },
        {
            "guid": "091db022-dcb1-4b44-8da2-d2e22e6f3057",
            "title": "Новосибирск № 24",
            "brand": "Гармония Здоровья",
            "city": "Новосибирск",
            "street": "Панфиловцев",
            "buildNumber": "9",
            "office": null,
            "phone": "8 (383) 244-96-24",
            "weekDayTime": "08:00 - 21:00",
            "weekDayBreakTime": "00:00 - 00:00",
            "weekEndTime": "08:00 - 21:00",
            "weekEndBreakTime": "00:00 - 00:00",
            "coordinates": [
                55.023909,
                82.979817
            ],
            "isHeadOffice": false,
            "isCashDispenser": true
        },
        {
            "guid": "2cbd0ac7-2b77-4236-99ae-1568dde12927",
            "title": "Новосибирск № 27",
            "brand": "Гармония Здоровья",
            "city": "Новосибирск",
            "street": "Кубовая",
            "buildNumber": "103 корп. 2",
            "office": null,
            "phone": "8 (383) 228-36-27",
            "weekDayTime": "09:00 - 22:00",
            "weekDayBreakTime": "00:00 - 00:00",
            "weekEndTime": "09:00 - 22:00",
            "weekEndBreakTime": "00:00 - 00:00",
            "coordinates": [
                55.128737,
                82.898574
            ],
            "isHeadOffice": false,
            "isCashDispenser": true
        },
        {
            "guid": "7defee09-09bb-4840-beff-43061b1ad34d",
            "title": "Новосибирск № 33",
            "brand": "Гармония Здоровья",
            "city": "Новосибирск",
            "street": "Озерный пос. Центральная аллея",
            "buildNumber": "28",
            "office": null,
            "phone": "8 (383) 383-23-46",
            "weekDayTime": "08:15 - 21:00",
            "weekDayBreakTime": "00:00 - 00:00",
            "weekEndTime": "08:15 - 21:00",
            "weekEndBreakTime": "00:00 - 00:00",
            "coordinates": [
                55.146594,
                82.900029
            ],
            "isHeadOffice": false,
            "isCashDispenser": true
        },
        {
            "guid": "21eaf315-e440-45c7-a69f-3b5d16adaa02",
            "title": "Новосибирск № 34",
            "brand": "Дешёвая Аптека",
            "city": "Новосибирск",
            "street": "Новоуральская",
            "buildNumber": "17",
            "office": null,
            "phone": "8 (383) 204-86-05",
            "weekDayTime": "08:00 - 22:00",
            "weekDayBreakTime": "00:00 - 00:00",
            "weekEndTime": "08:00 - 22:00",
            "weekEndBreakTime": "00:00 - 00:00",
            "coordinates": [
                55.176249,
                82.96186
            ],
            "isHeadOffice": false,
            "isCashDispenser": true
        },
        {
            "guid": "97573086-0e44-4ca0-81e8-d2da4c2f3593",
            "title": "Новосибирск № 35",
            "brand": "Гармония Здоровья",
            "city": "Новосибирск",
            "street": "Карла Маркса",
            "buildNumber": "37/2",
            "office": null,
            "phone": "8 (383) 2449635",
            "weekDayTime": "08:10 - 21:50",
            "weekDayBreakTime": "00:00 - 00:00",
            "weekEndTime": "08:10 - 21:50",
            "weekEndBreakTime": "00:00 - 00:00",
            "coordinates": [
                54.989001,
                82.90514
            ],
            "isHeadOffice": false,
            "isCashDispenser": true
        },
        {
            "guid": "560fa452-8865-4bc8-a55d-5b385fbdd5a9",
            "title": "Новосибирск № 36",
            "brand": "Гармония Здоровья",
            "city": "Новосибирск",
            "street": "Первомайская",
            "buildNumber": "236/1",
            "office": null,
            "phone": "8 (383) 388-78-36 ",
            "weekDayTime": "08:00 - 22:00",
            "weekDayBreakTime": "00:00 - 00:00",
            "weekEndTime": "08:00 - 22:00",
            "weekEndBreakTime": "00:00 - 00:00",
            "coordinates": [
                54.977082,
                83.048017
            ],
            "isHeadOffice": false,
            "isCashDispenser": true
        },
        {
            "guid": "79bb7325-0b2e-4b39-84f2-c2f115f18e8e",
            "title": "Новосибирск № 37",
            "brand": "Гармония Здоровья",
            "city": "Новосибирск",
            "street": "Рассветная",
            "buildNumber": "13",
            "office": null,
            "phone": "8 (383) 244-95-37",
            "weekDayTime": "08:00 - 22:00",
            "weekDayBreakTime": "00:00 - 00:00",
            "weekEndTime": "08:00 - 22:00",
            "weekEndBreakTime": "00:00 - 00:00",
            "coordinates": [
                55.108817,
                82.973053
            ],
            "isHeadOffice": false,
            "isCashDispenser": true
        },
        {
            "guid": "280214ac-e815-491d-abc4-b3d885d9c2af",
            "title": "Новосибирск № 38",
            "brand": "Гармония Здоровья",
            "city": "Новосибирск",
            "street": "Высоцкого",
            "buildNumber": "41/1",
            "office": null,
            "phone": "8 (383) 244-95-38",
            "weekDayTime": "08:00 - 22:00",
            "weekDayBreakTime": "00:00 - 00:00",
            "weekEndTime": "08:00 - 22:00",
            "weekEndBreakTime": "00:00 - 00:00",
            "coordinates": [
                55.031479,
                83.021778
            ],
            "isHeadOffice": false,
            "isCashDispenser": true
        },
        {
            "guid": "e6f6dc3c-60cf-4732-ac92-65cb43c34b7a",
            "title": "Новосибирск № 39",
            "brand": "Гармония Здоровья",
            "city": "Новосибирск",
            "street": "Аэропорт",
            "buildNumber": "45",
            "office": null,
            "phone": "8 (383) 388-81-39",
            "weekDayTime": "08:00 - 22:00",
            "weekDayBreakTime": "00:00 - 00:00",
            "weekEndTime": "08:00 - 22:00",
            "weekEndBreakTime": "00:00 - 00:00",
            "coordinates": [
                55.076009,
                82.908392
            ],
            "isHeadOffice": false,
            "isCashDispenser": true
        },
        {
            "guid": "bc86458f-e0ff-4221-b57b-a02b3479c207",
            "title": "Новосибирск № 40",
            "brand": "Дешёвая Аптека",
            "city": "Новосибирск",
            "street": "Героев Революции",
            "buildNumber": "47",
            "office": null,
            "phone": "8 (383) 244-96-40",
            "weekDayTime": "08:10 - 21:50",
            "weekDayBreakTime": "00:00 - 00:00",
            "weekEndTime": "08:10 - 21:50",
            "weekEndBreakTime": "00:00 - 00:00",
            "coordinates": [
                54.976261,
                83.080411
            ],
            "isHeadOffice": false,
            "isCashDispenser": true
        },
        {
            "guid": "e416ed1a-4f64-406c-a636-32f4ca075130",
            "title": "Новосибирск № 43",
            "brand": "Гармония Здоровья",
            "city": "Новосибирск",
            "street": "Немировича-Данченко",
            "buildNumber": "120 корп. 4",
            "office": null,
            "phone": "2478942",
            "weekDayTime": "08:00 - 22:00",
            "weekDayBreakTime": "00:00 - 00:00",
            "weekEndTime": "08:00 - 22:00",
            "weekEndBreakTime": "00:00 - 00:00",
            "coordinates": [
                54.977594,
                82.91177
            ],
            "isHeadOffice": false,
            "isCashDispenser": true
        },
        {
            "guid": "a43bb05e-34be-4520-bc8c-d9d74bd68deb",
            "title": "Новосибирск № 51",
            "brand": "Гармония Здоровья",
            "city": "Новосибирск",
            "street": "Станиславского",
            "buildNumber": "2",
            "office": null,
            "phone": "8 (383) 383-60-51 ",
            "weekDayTime": "08:00 - 21:00",
            "weekDayBreakTime": "00:00 - 00:00",
            "weekEndTime": "08:00 - 21:00",
            "weekEndBreakTime": "00:00 - 00:00",
            "coordinates": [
                54.991067,
                82.869917
            ],
            "isHeadOffice": false,
            "isCashDispenser": true
        },
        {
            "guid": "94ad812b-c0cc-486d-8598-23640e484726",
            "title": "Новосибирск № 55",
            "brand": "Гармония Здоровья",
            "city": "Новосибирск",
            "street": "Русская",
            "buildNumber": "1",
            "office": null,
            "phone": "8 (383) 247-84-55",
            "weekDayTime": "08:00 - 22:00",
            "weekDayBreakTime": "00:00 - 00:00",
            "weekEndTime": "08:00 - 22:00",
            "weekEndBreakTime": "00:00 - 00:00",
            "coordinates": [
                54.849385,
                83.04163
            ],
            "isHeadOffice": false,
            "isCashDispenser": true
        },
        {
            "guid": "34cb6a3a-65b9-4b9d-9f22-406a223cdb9b",
            "title": "Новосибирск № 57",
            "brand": "Гармония Здоровья",
            "city": "Новосибирск",
            "street": "Шмонина",
            "buildNumber": "10",
            "office": null,
            "phone": "3834457",
            "weekDayTime": "08:00 - 22:00",
            "weekDayBreakTime": "00:00 - 00:00",
            "weekEndTime": "08:00 - 22:00",
            "weekEndBreakTime": "00:00 - 00:00",
            "coordinates": [
                54.941141,
                82.960108
            ],
            "isHeadOffice": false,
            "isCashDispenser": true
        },
        {
            "guid": "4f2986c0-e87b-499e-afee-6cc64dacd89a",
            "title": "Новосибирск № 58",
            "brand": "Гармония Здоровья",
            "city": "Новосибирск",
            "street": "Ольги Берггольц",
            "buildNumber": "39",
            "office": null,
            "phone": "8 (383) 383-61-58",
            "weekDayTime": "08:30 - 22:00",
            "weekDayBreakTime": "00:00 - 00:00",
            "weekEndTime": "08:30 - 22:00",
            "weekEndBreakTime": "00:00 - 00:00",
            "coordinates": [
                54.939625,
                83.10736
            ],
            "isHeadOffice": false,
            "isCashDispenser": true
        },
        {
            "guid": "1f891cef-b6c9-4dee-b034-fa1656dbbcd1",
            "title": "Новосибирск № 59",
            "brand": "Аптека Всем",
            "city": "Новосибирск",
            "street": "Шмидта",
            "buildNumber": "9",
            "office": null,
            "phone": "3885059",
            "weekDayTime": "07:00 - 22:00",
            "weekDayBreakTime": "00:00 - 00:00",
            "weekEndTime": "07:00 - 22:00",
            "weekEndBreakTime": "00:00 - 00:00",
            "coordinates": [
                54.975904,
                83.080357
            ],
            "isHeadOffice": false,
            "isCashDispenser": true
        },
        {
            "guid": "8ad5623e-4610-44f1-94cc-e430c2ca1472",
            "title": "Новосибирск № 61",
            "brand": "Гармония Здоровья",
            "city": "Новосибирск",
            "street": "6-й микрорайон",
            "buildNumber": "1",
            "office": null,
            "phone": "8 (383) 388-56-61",
            "weekDayTime": "09:00 - 22:00",
            "weekDayBreakTime": "00:00 - 00:00",
            "weekEndTime": "09:00 - 22:00",
            "weekEndBreakTime": "00:00 - 00:00",
            "coordinates": [
                54.927853,
                82.985764
            ],
            "isHeadOffice": false,
            "isCashDispenser": true
        },
        {
            "guid": "8726752c-ee0d-42c6-aa21-0952a1aa2ee9",
            "title": "Новосибирск № 63",
            "brand": "Дешёвая Аптека",
            "city": "Новосибирск",
            "street": "Троллейная",
            "buildNumber": "14",
            "office": null,
            "phone": "3885463",
            "weekDayTime": "08:00 - 22:00",
            "weekDayBreakTime": "00:00 - 00:00",
            "weekEndTime": "08:00 - 22:00",
            "weekEndBreakTime": "00:00 - 00:00",
            "coordinates": [
                54.98912,
                82.85698
            ],
            "isHeadOffice": false,
            "isCashDispenser": true
        },
        {
            "guid": "db62eabb-f6a8-48ce-a3dc-8e83dc7b3191",
            "title": "Новосибирск № 64",
            "brand": "Гармония Здоровья",
            "city": "Новосибирск",
            "street": "Кошурникова",
            "buildNumber": "24/1",
            "office": null,
            "phone": "3887264",
            "weekDayTime": "08:00 - 22:00",
            "weekDayBreakTime": "00:00 - 00:00",
            "weekEndTime": "08:00 - 22:00",
            "weekEndBreakTime": "00:00 - 00:00",
            "coordinates": [
                55.03941,
                82.97033
            ],
            "isHeadOffice": false,
            "isCashDispenser": true
        },
        {
            "guid": "22fe5b70-2bb9-47b4-8dc2-aab9f30f673f",
            "title": "Новосибирск № 67",
            "brand": "Гармония Здоровья",
            "city": "Новосибирск",
            "street": "Бориса Богаткова",
            "buildNumber": "з/у 248а",
            "office": null,
            "phone": "8 (383) 388-79-67",
            "weekDayTime": "08:00 - 22:00",
            "weekDayBreakTime": "00:00 - 00:00",
            "weekEndTime": "08:00 - 22:00",
            "weekEndBreakTime": "00:00 - 00:00",
            "coordinates": [
                82.978394,
                55.037639
            ],
            "isHeadOffice": false,
            "isCashDispenser": true
        },
        {
            "guid": "4ce44a19-529c-408c-95a5-f6cadae829cc",
            "title": "Новосибирск № 68",
            "brand": "Гармония Здоровья",
            "city": "Новосибирск",
            "street": "Троллейная",
            "buildNumber": "130/1",
            "office": null,
            "phone": "8 (383) 388-82-68",
            "weekDayTime": "08:00 - 21:00",
            "weekDayBreakTime": "00:00 - 00:00",
            "weekEndTime": "08:00 - 21:00",
            "weekEndBreakTime": "00:00 - 00:00",
            "coordinates": [
                54.963505,
                82.85146
            ],
            "isHeadOffice": false,
            "isCashDispenser": true
        },
        {
            "guid": "89d21a38-70e6-43ad-b62c-355b5acd5284",
            "title": "Новосибирск № 70",
            "brand": "Дешёвая Аптека",
            "city": "Новосибирск",
            "street": "Шмонина",
            "buildNumber": "6а",
            "office": null,
            "phone": "8 (383) 388-81-70",
            "weekDayTime": "08:00 - 22:00",
            "weekDayBreakTime": "00:00 - 00:00",
            "weekEndTime": "08:00 - 22:00",
            "weekEndBreakTime": "00:00 - 00:00",
            "coordinates": [
                54.94267,
                82.95915
            ],
            "isHeadOffice": false,
            "isCashDispenser": true
        },
        {
            "guid": "7cc67d91-7472-47bd-b051-2cec6d89427c",
            "title": "Новосибирск № 71",
            "brand": "Гармония Здоровья",
            "city": "Новосибирск",
            "street": "Орджоникидзе",
            "buildNumber": "30",
            "office": null,
            "phone": "8 (383) 244-92-71",
            "weekDayTime": "08:00 - 22:00",
            "weekDayBreakTime": "00:00 - 00:00",
            "weekEndTime": "08:00 - 22:00",
            "weekEndBreakTime": "00:00 - 00:00",
            "coordinates": [
                55.031594,
                82.930343
            ],
            "isHeadOffice": false,
            "isCashDispenser": true
        },
        {
            "guid": "7250b3b7-8e81-4b03-8053-bba3ca6ba368",
            "title": "Новосибирск № 72",
            "brand": "Гармония Здоровья",
            "city": "Новосибирск",
            "street": "Холодильная",
            "buildNumber": "16",
            "office": null,
            "phone": "+7 (383) 388-83-72",
            "weekDayTime": "08:00 - 21:00",
            "weekDayBreakTime": "00:00 - 00:00",
            "weekEndTime": "08:00 - 21:00",
            "weekEndBreakTime": "00:00 - 00:00",
            "coordinates": [
                55.049669,
                82.886125
            ],
            "isHeadOffice": false,
            "isCashDispenser": true
        },
        {
            "guid": "596eafd0-53b8-403e-a481-095b0bd4f137",
            "title": "Новосибирск № 73",
            "brand": "Гармония Здоровья",
            "city": "Новосибирск",
            "street": "Петухова",
            "buildNumber": "69",
            "office": null,
            "phone": "+7 (383) 388-85-73",
            "weekDayTime": "09:00 - 20:00",
            "weekDayBreakTime": "00:00 - 00:00",
            "weekEndTime": "09:00 - 20:00",
            "weekEndBreakTime": "00:00 - 00:00",
            "coordinates": [
                54.942469,
                82.905821
            ],
            "isHeadOffice": false,
            "isCashDispenser": true
        },
        {
            "guid": "ae88b0da-2704-4cb0-b85c-38e41a38652a",
            "title": "Новосибирск № 74",
            "brand": "Гармония Здоровья",
            "city": "Новосибирск",
            "street": "Одоевского",
            "buildNumber": "11",
            "office": null,
            "phone": "7 (383) 244-91-74",
            "weekDayTime": "08:00 - 22:00",
            "weekDayBreakTime": "00:00 - 00:00",
            "weekEndTime": "08:00 - 22:00",
            "weekEndBreakTime": "00:00 - 00:00",
            "coordinates": [
                54.940768,
                83.119346
            ],
            "isHeadOffice": false,
            "isCashDispenser": true
        },
        {
            "guid": "72eaa45f-2f40-402c-9f13-94fee313b387",
            "title": "Новосибирск № 75",
            "brand": "Гармония Здоровья",
            "city": "Новосибирск",
            "street": "Бульвар Молодежи",
            "buildNumber": "15",
            "office": "3",
            "phone": "7 (383) 244-96-75",
            "weekDayTime": "08:00 - 22:00",
            "weekDayBreakTime": "00:00 - 00:00",
            "weekEndTime": "08:00 - 22:00",
            "weekEndBreakTime": "00:00 - 00:00",
            "coordinates": [
                54.864264,
                83.085809
            ],
            "isHeadOffice": false,
            "isCashDispenser": false
        },
        {
            "guid": "d4fced45-d8f8-4d7f-8dab-e98ce7712cbc",
            "title": "Новосибирск № 76",
            "brand": "Гармония Здоровья",
            "city": "Новосибирск",
            "street": "Татьяны Снежиной",
            "buildNumber": "48/1",
            "office": null,
            "phone": "7 (383) 388-50-76",
            "weekDayTime": "08:00 - 22:00",
            "weekDayBreakTime": "00:00 - 00:00",
            "weekEndTime": "08:00 - 22:00",
            "weekEndBreakTime": "00:00 - 00:00",
            "coordinates": [
                83.023919,
                55.024342
            ],
            "isHeadOffice": false,
            "isCashDispenser": false
        }
    ],
    "Норильск": [
        {
            "guid": "7ebc60b3-3e69-4965-af02-28ef9826315f",
            "title": "Норильск № 01",
            "brand": "Дешёвая Аптека",
            "city": "Норильск",
            "street": "Школьная",
            "buildNumber": "16/2",
            "office": null,
            "phone": "8 (3919) 869601",
            "weekDayTime": "08:00 - 22:00",
            "weekDayBreakTime": "00:00 - 00:00",
            "weekEndTime": "08:00 - 22:00",
            "weekEndBreakTime": "00:00 - 00:00",
            "coordinates": [
                69.350498,
                87.755207
            ],
            "isHeadOffice": false,
            "isCashDispenser": false
        },
        {
            "guid": "825db15a-4725-4ff2-8213-63c11cdeadf9",
            "title": "Норильск № 02",
            "brand": "Гармония Здоровья",
            "city": "Норильск",
            "street": "Ленинский проспект",
            "buildNumber": "43",
            "office": null,
            "phone": "8 (3919) 222-52-5",
            "weekDayTime": "09:00 - 22:00",
            "weekDayBreakTime": "00:00 - 00:00",
            "weekEndTime": "09:00 - 22:00",
            "weekEndBreakTime": "00:00 - 00:00",
            "coordinates": [
                69.35558,
                88.186524
            ],
            "isHeadOffice": false,
            "isCashDispenser": false
        },
        {
            "guid": "e9780824-0fd5-46e5-be90-bd5f501c4961",
            "title": "Норильск № 03",
            "brand": "Гармония Здоровья",
            "city": "Норильск",
            "street": "Бауманская",
            "buildNumber": "9",
            "office": null,
            "phone": "8 (39194) 371-61-6",
            "weekDayTime": "08:00 - 22:00",
            "weekDayBreakTime": "00:00 - 00:00",
            "weekEndTime": "08:00 - 22:00",
            "weekEndBreakTime": "00:00 - 00:00",
            "coordinates": [
                69.490557,
                88.383354
            ],
            "isHeadOffice": false,
            "isCashDispenser": false
        },
        {
            "guid": "ca317179-0a44-4be3-ada6-26ba4304a50c",
            "title": "Норильск № 05",
            "brand": "Гармония Здоровья",
            "city": "Норильск",
            "street": "Красноярская",
            "buildNumber": "5",
            "office": null,
            "phone": "8 (3919) 465666",
            "weekDayTime": "08:00 - 22:00",
            "weekDayBreakTime": "00:00 - 00:00",
            "weekEndTime": "08:00 - 22:00",
            "weekEndBreakTime": "00:00 - 00:00",
            "coordinates": [
                69.356946,
                88.174271
            ],
            "isHeadOffice": false,
            "isCashDispenser": false
        },
        {
            "guid": "bfc5b934-80a5-412d-b130-84720b00519c",
            "title": "Норильск № 06",
            "brand": "Гармония Здоровья",
            "city": "Норильск",
            "street": "Маслова",
            "buildNumber": "9",
            "office": null,
            "phone": "8 (3919) 372-52-5",
            "weekDayTime": "08:00 - 22:00",
            "weekDayBreakTime": "00:00 - 00:00",
            "weekEndTime": "08:00 - 22:00",
            "weekEndBreakTime": "00:00 - 00:00",
            "coordinates": [
                69.490475,
                88.392796
            ],
            "isHeadOffice": false,
            "isCashDispenser": false
        },
        {
            "guid": "fc4fd92e-bec6-4c23-b2a7-cb92ff20a9d5",
            "title": "Норильск № 08",
            "brand": "Дешёвая Аптека",
            "city": "Норильск",
            "street": "Комсомольская",
            "buildNumber": "46",
            "office": null,
            "phone": "8 (3919) 467-17-1",
            "weekDayTime": "08:00 - 22:00",
            "weekDayBreakTime": "00:00 - 00:00",
            "weekEndTime": "08:00 - 22:00",
            "weekEndBreakTime": "00:00 - 00:00",
            "coordinates": [
                69.353725,
                88.182266
            ],
            "isHeadOffice": false,
            "isCashDispenser": false
        },
        {
            "guid": "d4a7dce2-a92f-46a3-bc0e-3276ee69733d",
            "title": "Норильск № 10",
            "brand": "Дешёвая Аптека",
            "city": "Норильск",
            "street": "Ленинский",
            "buildNumber": "40",
            "office": null,
            "phone": "8 (3919) 369-303",
            "weekDayTime": "08:00 - 22:00",
            "weekDayBreakTime": "00:00 - 00:00",
            "weekEndTime": "08:00 - 22:00",
            "weekEndBreakTime": "00:00 - 00:00",
            "coordinates": [
                69.353332,
                88.194178
            ],
            "isHeadOffice": false,
            "isCashDispenser": false
        },
        {
            "guid": "3fec31c5-ea95-416e-90c5-dd43797601d2",
            "title": "Норильск № 11",
            "brand": "Дешёвая Аптека",
            "city": "Норильск",
            "street": "Талнахская",
            "buildNumber": "71",
            "office": null,
            "phone": "8 (3919) 369-054 ",
            "weekDayTime": "08:00 - 22:00",
            "weekDayBreakTime": "00:00 - 00:00",
            "weekEndTime": "08:00 - 22:00",
            "weekEndBreakTime": "00:00 - 00:00",
            "coordinates": [
                69.358886,
                88.19814
            ],
            "isHeadOffice": false,
            "isCashDispenser": false
        },
        {
            "guid": "ddb8383b-ef81-4ebf-b21f-6edf5e9ade9a",
            "title": "Норильск № 12",
            "brand": "Гармония Здоровья",
            "city": "Норильск",
            "street": "Бегичева",
            "buildNumber": "32",
            "office": null,
            "phone": "8 (3919) 369-241",
            "weekDayTime": "08:00 - 22:00",
            "weekDayBreakTime": "00:00 - 00:00",
            "weekEndTime": "08:00 - 22:00",
            "weekEndBreakTime": "00:00 - 00:00",
            "coordinates": [
                69.364019,
                88.177631
            ],
            "isHeadOffice": false,
            "isCashDispenser": false
        },
        {
            "guid": "2767835d-b590-41ca-beb6-e21443ed793a",
            "title": "Норильск № 13",
            "brand": "Гармония Здоровья",
            "city": "Норильск",
            "street": "Талнахская",
            "buildNumber": "33",
            "office": null,
            "phone": "8 (3919) 369-349 ",
            "weekDayTime": "08:00 - 22:00",
            "weekDayBreakTime": "00:00 - 00:00",
            "weekEndTime": "08:00 - 22:00",
            "weekEndBreakTime": "00:00 - 00:00",
            "coordinates": [
                69.350736,
                88.213752
            ],
            "isHeadOffice": false,
            "isCashDispenser": false
        },
        {
            "guid": "b60b1d65-e8c2-4307-9536-6f2116d7476c",
            "title": "Норильск № 14",
            "brand": "Дешёвая Аптека",
            "city": "Норильск",
            "street": "Ленинский",
            "buildNumber": "25",
            "office": null,
            "phone": "8 (3919) 369-459 ",
            "weekDayTime": "08:00 - 22:00",
            "weekDayBreakTime": "00:00 - 00:00",
            "weekEndTime": "08:00 - 22:00",
            "weekEndBreakTime": "00:00 - 00:00",
            "coordinates": [
                69.351408,
                88.195597
            ],
            "isHeadOffice": false,
            "isCashDispenser": false
        },
        {
            "guid": "f77da823-12ed-4b86-8ca2-2f5a9cb603dd",
            "title": "Норильск № 15",
            "brand": "Гармония Здоровья",
            "city": "Норильск",
            "street": "Озерная",
            "buildNumber": "21Б",
            "office": null,
            "phone": "8 (3919) 369-629  ",
            "weekDayTime": "08:00 - 22:00",
            "weekDayBreakTime": "00:00 - 00:00",
            "weekEndTime": "08:00 - 22:00",
            "weekEndBreakTime": "00:00 - 00:00",
            "coordinates": [
                69.359161,
                88.370598
            ],
            "isHeadOffice": false,
            "isCashDispenser": false
        },
        {
            "guid": "ce621b1d-d2fc-459a-8463-2ae84f8bdede",
            "title": "Норильск № 17",
            "brand": "Дешёвая Аптека",
            "city": "Норильск",
            "street": "Комсомольская",
            "buildNumber": "41г",
            "office": null,
            "phone": "8(3919) 369-751",
            "weekDayTime": "08:00 - 22:00",
            "weekDayBreakTime": "00:00 - 00:00",
            "weekEndTime": "08:00 - 22:00",
            "weekEndBreakTime": "00:00 - 00:00",
            "coordinates": [
                69.352311,
                88.182033
            ],
            "isHeadOffice": false,
            "isCashDispenser": false
        },
        {
            "guid": "95c7c68f-73b8-43b3-b980-4d4e5bff549b",
            "title": "Норильск № 20",
            "brand": "Дешёвая Аптека",
            "city": "Норильск",
            "street": "Павлова",
            "buildNumber": "15а",
            "office": null,
            "phone": "8-3919-369208",
            "weekDayTime": "08:00 - 22:00",
            "weekDayBreakTime": "00:00 - 00:00",
            "weekEndTime": "08:00 - 22:00",
            "weekEndBreakTime": "00:00 - 00:00",
            "coordinates": [
                69.350273,
                88.218639
            ],
            "isHeadOffice": false,
            "isCashDispenser": false
        },
        {
            "guid": "119a9f72-2752-451e-868f-2cdcf014f452",
            "title": "Норильск № 21",
            "brand": "Дешёвая Аптека",
            "city": "Норильск",
            "street": "Первопроходцев",
            "buildNumber": "10",
            "office": null,
            "phone": "+73919369518",
            "weekDayTime": "08:00 - 22:00",
            "weekDayBreakTime": "00:00 - 00:00",
            "weekEndTime": "08:00 - 22:00",
            "weekEndBreakTime": "00:00 - 00:00",
            "coordinates": [
                69.496359,
                88.399612
            ],
            "isHeadOffice": false,
            "isCashDispenser": false
        }
    ],
    "Подольск": [
        {
            "guid": "6dfdb428-39ba-4241-b299-f8694a348960",
            "title": "Москва № 01",
            "brand": "«‎ДА»‎ аптека",
            "city": "Подольск",
            "street": "Молодежная",
            "buildNumber": "10в",
            "office": "",
            "phone": "8 (499) 653-87-01",
            "weekDayTime": "08:00 - 22:00",
            "weekDayBreakTime": "00:00 - 00:00",
            "weekEndTime": "09:00 - 22:00",
            "weekEndBreakTime": "00:00 - 00:00",
            "coordinates": [
                55.382634,
                37.537824
            ],
            "isHeadOffice": false,
            "isCashDispenser": false
        },
        {
            "guid": "6e5314ca-b4ab-4bb6-8c75-83b60047cf54",
            "title": "Москва № 05",
            "brand": "«‎ДА»‎ аптека",
            "city": "Подольск",
            "street": "Мраморная",
            "buildNumber": "2в",
            "office": null,
            "phone": "8 (499) 490-17-05",
            "weekDayTime": "08:00 - 21:00",
            "weekDayBreakTime": "00:00 - 00:00",
            "weekEndTime": "08:00 - 21:00",
            "weekEndBreakTime": "00:00 - 00:00",
            "coordinates": [
                55.439839,
                37.565551
            ],
            "isHeadOffice": false,
            "isCashDispenser": false
        },
        {
            "guid": "7a36f3d1-f096-48ce-bb32-1803a96b7225",
            "title": "Москва № 06",
            "brand": "«‎ДА»‎ аптека",
            "city": "Подольск",
            "street": "Юбилейная",
            "buildNumber": "32",
            "office": null,
            "phone": "7 495 859 22 06",
            "weekDayTime": "08:00 - 22:00",
            "weekDayBreakTime": "00:00 - 00:00",
            "weekEndTime": "08:00 - 22:00",
            "weekEndBreakTime": "00:00 - 00:00",
            "coordinates": [
                55.430906,
                37.498698
            ],
            "isHeadOffice": false,
            "isCashDispenser": false
        },
        {
            "guid": "e1f6dbb5-3f22-44a8-b4d2-764254dbb50c",
            "title": "Москва № 11",
            "brand": "«‎ДА»‎ аптека",
            "city": "Подольск",
            "street": "Бородинская",
            "buildNumber": "25",
            "office": null,
            "phone": "8 (495) 662-98-11",
            "weekDayTime": "08:00 - 21:00",
            "weekDayBreakTime": "00:00 - 00:00",
            "weekEndTime": "08:00 - 21:00",
            "weekEndBreakTime": "00:00 - 00:00",
            "coordinates": [
                55.400144,
                37.563691
            ],
            "isHeadOffice": false,
            "isCashDispenser": false
        },
        {
            "guid": "1e561ad7-8f5c-469f-b7fc-de8352add5d1",
            "title": "Москва № 13",
            "brand": "Гармония Здоровья",
            "city": "Подольск",
            "street": "Свердлова",
            "buildNumber": "26",
            "office": "16",
            "phone": "+7 (499) 455-51-13",
            "weekDayTime": "09:00 - 22:00",
            "weekDayBreakTime": "00:00 - 00:00",
            "weekEndTime": "09:00 - 22:00",
            "weekEndBreakTime": "00:00 - 00:00",
            "coordinates": [
                55.424316,
                37.538305
            ],
            "isHeadOffice": false,
            "isCashDispenser": false
        }
    ],
    "Подсинее с.": [
        {
            "guid": "58b2320f-d387-4da0-bcd6-0cfa80d67494",
            "title": "Абакан № 27",
            "brand": "Дешёвая Аптека",
            "city": "Подсинее с.",
            "street": "Зелёная",
            "buildNumber": "10",
            "office": null,
            "phone": "8 (39041) 252-20",
            "weekDayTime": "08:00 - 19:50",
            "weekDayBreakTime": "00:00 - 00:00",
            "weekEndTime": "08:00 - 19:50",
            "weekEndBreakTime": "00:00 - 00:00",
            "coordinates": [
                53.663564,
                91.545774
            ],
            "isHeadOffice": false,
            "isCashDispenser": false
        }
    ],
    "Саяногорск": [
        {
            "guid": "5eb6fbf5-c65e-40b3-b508-294f8e19c498",
            "title": "Абакан № 01",
            "brand": "Дешёвая Аптека",
            "city": "Саяногорск",
            "street": "Советский микрорайон",
            "buildNumber": "38",
            "office": null,
            "phone": "8 (39042) 20-13-1",
            "weekDayTime": "08:00 - 22:00",
            "weekDayBreakTime": "00:00 - 00:00",
            "weekEndTime": "08:00 - 22:00",
            "weekEndBreakTime": "00:00 - 00:00",
            "coordinates": [
                53.103919,
                91.409509
            ],
            "isHeadOffice": false,
            "isCashDispenser": false
        },
        {
            "guid": "eb3c5ee1-6410-4b7e-9e55-05d2ea2fec13",
            "title": "Абакан № 14",
            "brand": "Дешёвая Аптека",
            "city": "Саяногорск",
            "street": "Заводской микрорайон",
            "buildNumber": "57, 61Н",
            "office": null,
            "phone": "8 (39042) 200-90",
            "weekDayTime": "08:00 - 22:00",
            "weekDayBreakTime": "00:00 - 00:00",
            "weekEndTime": "08:00 - 22:00",
            "weekEndBreakTime": "00:00 - 00:00",
            "coordinates": [
                53.095403,
                91.413848
            ],
            "isHeadOffice": false,
            "isCashDispenser": false
        },
        {
            "guid": "c586c09f-2a19-4150-9f5d-8e56f3433517",
            "title": "Абакан № 38",
            "brand": "Аптека Всем",
            "city": "Саяногорск",
            "street": "Заводской",
            "buildNumber": "64",
            "office": "15Н",
            "phone": "8 (390) 425-00-48",
            "weekDayTime": "08:00 - 22:00",
            "weekDayBreakTime": "00:00 - 00:00",
            "weekEndTime": "08:00 - 22:00",
            "weekEndBreakTime": "00:00 - 00:00",
            "coordinates": [
                53.070311,
                91.400229
            ],
            "isHeadOffice": false,
            "isCashDispenser": true
        }
    ],
    "Сергиев Посад": [
        {
            "guid": "93a64ea1-bd49-4073-954f-30341b8d3584",
            "title": "Москва № 12",
            "brand": "«‎ДА»‎ аптека",
            "city": "Сергиев Посад",
            "street": "ул. 1-я Рыбная",
            "buildNumber": "17А",
            "office": null,
            "phone": "+7 (499) 226-15-12",
            "weekDayTime": "08:00 - 21:00",
            "weekDayBreakTime": "00:00 - 00:00",
            "weekEndTime": "08:00 - 21:00",
            "weekEndBreakTime": "00:00 - 00:00",
            "coordinates": [
                56.30467,
                38.137329
            ],
            "isHeadOffice": false,
            "isCashDispenser": false
        }
    ],
    "Симферополь": [
        {
            "guid": "925a7f45-5981-4384-9945-28272d366f4f",
            "title": "Крым № 03",
            "brand": "«‎ДА»‎ аптека",
            "city": "Симферополь",
            "street": "Победы",
            "buildNumber": "218",
            "office": null,
            "phone": "8 (365) 288-72-13",
            "weekDayTime": "08:00 - 22:00",
            "weekDayBreakTime": "00:00 - 00:00",
            "weekEndTime": "08:00 - 22:00",
            "weekEndBreakTime": "00:00 - 00:00",
            "coordinates": [
                44.974475,
                34.134912
            ],
            "isHeadOffice": false,
            "isCashDispenser": false
        },
        {
            "guid": "ccba222d-9775-4a35-b66f-8ca16306f29f",
            "title": "Крым № 05",
            "brand": "«‎ДА»‎ аптека",
            "city": "Симферополь",
            "street": "Гагарина",
            "buildNumber": "40",
            "office": null,
            "phone": "8 (365) 288-72-07",
            "weekDayTime": "08:00 - 21:00",
            "weekDayBreakTime": "00:00 - 00:00",
            "weekEndTime": "08:00 - 21:00",
            "weekEndBreakTime": "00:00 - 00:00",
            "coordinates": [
                44.972977,
                34.095314
            ],
            "isHeadOffice": false,
            "isCashDispenser": false
        }
    ],
    "Смоленское ": [
        {
            "guid": "feb7cca1-69fa-4122-adcc-926ce7c706d0",
            "title": "Барнаул № 17",
            "brand": "Гармония Здоровья",
            "city": "Смоленское ",
            "street": "Соболева",
            "buildNumber": "12г",
            "office": null,
            "phone": "7 (385) 259-08-17",
            "weekDayTime": "08:00 - 22:00",
            "weekDayBreakTime": "00:00 - 00:00",
            "weekEndTime": "08:00 - 22:00",
            "weekEndBreakTime": "00:00 - 00:00",
            "coordinates": [
                52.509803,
                85.0813
            ],
            "isHeadOffice": false,
            "isCashDispenser": false
        }
    ],
    "Сосновоборск": [
        {
            "guid": "65fa9536-4b09-45db-b104-8327ccec867f",
            "title": "Красноярск № 61",
            "brand": "Аптека Всем",
            "city": "Сосновоборск",
            "street": "Ленинского комсомолла",
            "buildNumber": "2а",
            "office": null,
            "phone": "8 (39131) 2-84-28",
            "weekDayTime": "08:00 - 22:00",
            "weekDayBreakTime": "00:00 - 00:00",
            "weekEndTime": "08:00 - 22:00",
            "weekEndBreakTime": "00:00 - 00:00",
            "coordinates": [
                56.123373,
                93.339
            ],
            "isHeadOffice": false,
            "isCashDispenser": false
        }
    ],
    "Сочи": [
        {
            "guid": "6424f918-6e9a-4653-8065-5969a55eed24",
            "title": "Сочи № 01",
            "brand": "Дешёвая Аптека",
            "city": "Сочи",
            "street": "Голубые дали",
            "buildNumber": "8",
            "office": null,
            "phone": "8 (862) 246-00-79",
            "weekDayTime": "08:00 - 22:00",
            "weekDayBreakTime": "00:00 - 00:00",
            "weekEndTime": "08:00 - 22:00",
            "weekEndBreakTime": "00:00 - 00:00",
            "coordinates": [
                43.452545,
                39.90657
            ],
            "isHeadOffice": false,
            "isCashDispenser": false
        },
        {
            "guid": "f9f126fa-08fa-4862-a24d-06c45c70104a",
            "title": "Сочи № 02",
            "brand": "Гармония Здоровья",
            "city": "Сочи",
            "street": "Сухумское шоссе",
            "buildNumber": "52/2",
            "office": null,
            "phone": "8 (862) 247-17-21",
            "weekDayTime": "08:00 - 22:00",
            "weekDayBreakTime": "00:00 - 00:00",
            "weekEndTime": "08:00 - 22:00",
            "weekEndBreakTime": "00:00 - 00:00",
            "coordinates": [
                43.49431,
                39.88908
            ],
            "isHeadOffice": false,
            "isCashDispenser": false
        },
        {
            "guid": "dd38680e-cca6-44cc-a196-f795e6ef220c",
            "title": "Сочи № 04",
            "brand": "Дешёвая Аптека",
            "city": "Сочи",
            "street": "Труда",
            "buildNumber": "1А",
            "office": null,
            "phone": "8 (862) 555-11-92",
            "weekDayTime": "08:00 - 22:00",
            "weekDayBreakTime": "00:00 - 00:00",
            "weekEndTime": "08:00 - 22:00",
            "weekEndBreakTime": "00:00 - 00:00",
            "coordinates": [
                43.637735,
                39.751269
            ],
            "isHeadOffice": false,
            "isCashDispenser": false
        },
        {
            "guid": "be92499d-d5e0-4dab-87db-18b3bfe5aadb",
            "title": "Сочи № 06",
            "brand": "Дешёвая Аптека",
            "city": "Сочи",
            "street": "Бытха",
            "buildNumber": "51а ст1",
            "office": null,
            "phone": "8 (862) 448-21-62",
            "weekDayTime": "08:00 - 22:00",
            "weekDayBreakTime": "00:00 - 00:00",
            "weekEndTime": "08:00 - 22:00",
            "weekEndBreakTime": "00:00 - 00:00",
            "coordinates": [
                43.564083,
                39.773179
            ],
            "isHeadOffice": false,
            "isCashDispenser": false
        },
        {
            "guid": "5e4d08e3-7f2c-4543-b05e-2e25a4a79eef",
            "title": "Сочи № 07",
            "brand": "Дешёвая Аптека",
            "city": "Сочи",
            "street": "Донская",
            "buildNumber": "15",
            "office": null,
            "phone": "8 (862) 448-21-65",
            "weekDayTime": "08:00 - 22:00",
            "weekDayBreakTime": "00:00 - 00:00",
            "weekEndTime": "08:00 - 22:00",
            "weekEndBreakTime": "00:00 - 00:00",
            "coordinates": [
                43.619014,
                39.722666
            ],
            "isHeadOffice": false,
            "isCashDispenser": false
        },
        {
            "guid": "3033c83b-8312-4db3-a3e6-af2897ffaaf6",
            "title": "Сочи № 08",
            "brand": "Дешёвая Аптека",
            "city": "Сочи",
            "street": "Павлова",
            "buildNumber": "77",
            "office": null,
            "phone": "8 (862) 555-12-05",
            "weekDayTime": "08:00 - 22:00",
            "weekDayBreakTime": "00:00 - 00:00",
            "weekEndTime": "08:00 - 22:00",
            "weekEndBreakTime": "00:00 - 00:00",
            "coordinates": [
                43.911882,
                39.335133
            ],
            "isHeadOffice": false,
            "isCashDispenser": false
        },
        {
            "guid": "054a2db8-767c-4015-862e-d59c7d3556c7",
            "title": "Сочи № 09",
            "brand": "Дешёвая Аптека",
            "city": "Сочи",
            "street": "Чебрикова",
            "buildNumber": "7Д",
            "office": null,
            "phone": "8 (862) 555-13-06",
            "weekDayTime": "08:00 - 22:00",
            "weekDayBreakTime": "00:00 - 00:00",
            "weekEndTime": "08:00 - 22:00",
            "weekEndBreakTime": "00:00 - 00:00",
            "coordinates": [
                43.596442,
                39.733922
            ],
            "isHeadOffice": false,
            "isCashDispenser": false
        },
        {
            "guid": "01103744-f230-4e23-8a27-fd0969f68989",
            "title": "Сочи № 10",
            "brand": "Дешёвая Аптека",
            "city": "Сочи",
            "street": "Кирова",
            "buildNumber": "121",
            "office": null,
            "phone": "8 (862) 555-27-40",
            "weekDayTime": "07:00 - 21:00",
            "weekDayBreakTime": "00:00 - 00:00",
            "weekEndTime": "07:00 - 21:00",
            "weekEndBreakTime": "00:00 - 00:00",
            "coordinates": [
                43.430272,
                39.927919
            ],
            "isHeadOffice": false,
            "isCashDispenser": false
        },
        {
            "guid": "70703ef7-01f9-4418-8f5f-c129f4a21800",
            "title": "Сочи № 12",
            "brand": "Дешёвая Аптека",
            "city": "Сочи",
            "street": "Ленина",
            "buildNumber": "219г",
            "office": null,
            "phone": "+7 (862) 555-27-76",
            "weekDayTime": "08:00 - 22:00",
            "weekDayBreakTime": "00:00 - 00:00",
            "weekEndTime": "08:00 - 22:00",
            "weekEndBreakTime": "00:00 - 00:00",
            "coordinates": [
                43.467426,
                39.899653
            ],
            "isHeadOffice": false,
            "isCashDispenser": false
        }
    ],
    "Сухобузимское с.": [
        {
            "guid": "6fffbbf3-afdc-4cfd-bdad-895ada3b5871",
            "title": "Красноярск № 95",
            "brand": "Дешёвая Аптека",
            "city": "Сухобузимское с.",
            "street": "Комсомольская",
            "buildNumber": "31",
            "office": null,
            "phone": "+7 (391) 986-98-95",
            "weekDayTime": "08:00 - 21:00",
            "weekDayBreakTime": "00:00 - 00:00",
            "weekEndTime": "08:00 - 21:00",
            "weekEndBreakTime": "00:00 - 00:00",
            "coordinates": [
                56.50084,
                93.274636
            ],
            "isHeadOffice": false,
            "isCashDispenser": false
        }
    ],
    "Таштып с.": [
        {
            "guid": "c333d50f-9d8a-4f31-9b37-bd3f0ae166b3",
            "title": "Абакан № 28",
            "brand": "Дешёвая Аптека",
            "city": "Таштып с.",
            "street": "Советская",
            "buildNumber": "157",
            "office": null,
            "phone": "8 (39046) 211-33",
            "weekDayTime": "08:00 - 20:00",
            "weekDayBreakTime": "00:00 - 00:00",
            "weekEndTime": "08:00 - 20:00",
            "weekEndBreakTime": "00:00 - 00:00",
            "coordinates": [
                52.801756,
                89.893189
            ],
            "isHeadOffice": false,
            "isCashDispenser": false
        }
    ],
    "Тогучин": [
        {
            "guid": "cce2b334-a7f2-45da-af88-e2a1e69bbcd7",
            "title": "Новосибирск № 08",
            "brand": "Дешёвая Аптека",
            "city": "Тогучин",
            "street": "Островского",
            "buildNumber": "9А",
            "office": null,
            "phone": "4050500",
            "weekDayTime": "08:30 - 20:00",
            "weekDayBreakTime": "00:00 - 00:00",
            "weekEndTime": "08:30 - 20:00",
            "weekEndBreakTime": "00:00 - 00:00",
            "coordinates": [
                55.238075,
                84.401994
            ],
            "isHeadOffice": false,
            "isCashDispenser": true
        }
    ],
    "Троицкое с.": [
        {
            "guid": "ab03f7c2-7900-4b48-b12f-0fbd034d0a06",
            "title": "Барнаул № 18",
            "brand": "Гармония Здоровья",
            "city": "Троицкое с.",
            "street": "Ленина ",
            "buildNumber": "19",
            "office": null,
            "phone": "7 (385) 259-12-18",
            "weekDayTime": "08:00 - 21:00",
            "weekDayBreakTime": "00:00 - 00:00",
            "weekEndTime": "08:00 - 21:00",
            "weekEndBreakTime": "00:00 - 00:00",
            "coordinates": [
                52.982039,
                84.679141
            ],
            "isHeadOffice": false,
            "isCashDispenser": false
        }
    ],
    "Усть-Абакан пос.": [
        {
            "guid": "2098ef73-8fa9-47c1-a6a6-b829e3085be7",
            "title": "Абакан № 25",
            "brand": "Дешёвая Аптека",
            "city": "Усть-Абакан пос.",
            "street": "Проточная",
            "buildNumber": "22",
            "office": null,
            "phone": "8 (39032) 220-86-8",
            "weekDayTime": "08:00 - 20:00",
            "weekDayBreakTime": "00:00 - 00:00",
            "weekEndTime": "08:00 - 20:00",
            "weekEndBreakTime": "00:00 - 00:00",
            "coordinates": [
                53.83246,
                91.395226
            ],
            "isHeadOffice": false,
            "isCashDispenser": true
        }
    ],
    "Черногорск": [
        {
            "guid": "7d4ddc77-7304-4042-8192-a98ffcb7a157",
            "title": "Абакан № 02",
            "brand": "Гармония Здоровья",
            "city": "Черногорск",
            "street": "Дзержинского",
            "buildNumber": "13",
            "office": null,
            "phone": "8 (39031) 203-03",
            "weekDayTime": "09:00 - 21:00",
            "weekDayBreakTime": "00:00 - 00:00",
            "weekEndTime": "09:00 - 21:00",
            "weekEndBreakTime": "00:00 - 00:00",
            "coordinates": [
                53.822948,
                91.318943
            ],
            "isHeadOffice": false,
            "isCashDispenser": false
        },
        {
            "guid": "ff74f0e3-fd03-4ca9-933c-c361613dafb8",
            "title": "Абакан № 12",
            "brand": "Дешёвая Аптека",
            "city": "Черногорск",
            "street": "Космонавтов проспект",
            "buildNumber": "21Б",
            "office": null,
            "phone": "8 (39031) 335-13-2",
            "weekDayTime": "08:00 - 22:00",
            "weekDayBreakTime": "00:00 - 00:00",
            "weekEndTime": "08:00 - 22:00",
            "weekEndBreakTime": "00:00 - 00:00",
            "coordinates": [
                53.827167,
                91.323531
            ],
            "isHeadOffice": false,
            "isCashDispenser": false
        },
        {
            "guid": "94be8062-8682-486c-90cf-bded0176d864",
            "title": "Абакан № 21",
            "brand": "Дешёвая Аптека",
            "city": "Черногорск",
            "street": "Советская",
            "buildNumber": "36Б",
            "office": null,
            "phone": "8 (39031) 350-35",
            "weekDayTime": "08:00 - 22:00",
            "weekDayBreakTime": "00:00 - 00:00",
            "weekEndTime": "08:00 - 22:00",
            "weekEndBreakTime": "00:00 - 00:00",
            "coordinates": [
                53.82282,
                91.29404
            ],
            "isHeadOffice": false,
            "isCashDispenser": false
        },
        {
            "guid": "ee509ab1-1a4e-4ed4-b01f-b9c791555fa0",
            "title": "Абакан № 30",
            "brand": "Аптека Всем",
            "city": "Черногорск",
            "street": "Юбилейная",
            "buildNumber": "14",
            "office": null,
            "phone": "8 (39031) 351-75",
            "weekDayTime": "08:00 - 22:00",
            "weekDayBreakTime": "00:00 - 00:00",
            "weekEndTime": "08:00 - 22:00",
            "weekEndBreakTime": "00:00 - 00:00",
            "coordinates": [
                53.825987,
                91.329038
            ],
            "isHeadOffice": false,
            "isCashDispenser": true
        }
    ],
    "Шира с.": [
        {
            "guid": "74cdedc7-83ca-42f5-aa2d-77f9cd3e473e",
            "title": "Абакан № 17",
            "brand": "Дешёвая Аптека",
            "city": "Шира с.",
            "street": "Щетинина",
            "buildNumber": "106",
            "office": null,
            "phone": "8 (39035) 2-75-01",
            "weekDayTime": "08:00 - 21:00",
            "weekDayBreakTime": "00:00 - 00:00",
            "weekEndTime": "08:00 - 21:00",
            "weekEndBreakTime": "00:00 - 00:00",
            "coordinates": [
                54.488577,
                89.961739
            ],
            "isHeadOffice": false,
            "isCashDispenser": false
        }
    ],
    "Шушенское": [
        {
            "guid": "a38ea30e-8445-4e8f-8cdd-b0d38b5f6a54",
            "title": "Абакан № 34",
            "brand": "Дешёвая Аптека",
            "city": "Шушенское",
            "street": "2-ой микрорайон",
            "buildNumber": "6Б",
            "office": null,
            "phone": "83913927022",
            "weekDayTime": "08:00 - 21:00",
            "weekDayBreakTime": "00:00 - 00:00",
            "weekEndTime": "08:00 - 21:00",
            "weekEndBreakTime": "00:00 - 00:00",
            "coordinates": [
                53.330037,
                91.938527
            ],
            "isHeadOffice": false,
            "isCashDispenser": true
        },
        {
            "guid": "d81d7932-846c-4808-b92a-22839294584e",
            "title": "Абакан № 41",
            "brand": "Дешёвая Аптека",
            "city": "Шушенское",
            "street": "Ленина",
            "buildNumber": "63",
            "office": null,
            "phone": "8 (391) 392-70-33",
            "weekDayTime": "08:00 - 21:00",
            "weekDayBreakTime": "00:00 - 00:00",
            "weekEndTime": "08:00 - 21:00",
            "weekEndBreakTime": "00:00 - 00:00",
            "coordinates": [
                53.325019,
                91.932382
            ],
            "isHeadOffice": false,
            "isCashDispenser": true
        }
    ],
    "Ялта": [
        {
            "guid": "cf995a44-cdff-4d26-b4ed-6688b14cae9b",
            "title": "Крым № 01",
            "brand": "«‎ДА»‎ аптека",
            "city": "Ялта",
            "street": "Киевская",
            "buildNumber": "24А",
            "office": null,
            "phone": "8 (978) 671-37-39",
            "weekDayTime": "08:00 - 21:00",
            "weekDayBreakTime": "00:00 - 00:00",
            "weekEndTime": "08:00 - 21:00",
            "weekEndBreakTime": "00:00 - 00:00",
            "coordinates": [
                44.505001,
                34.167808
            ],
            "isHeadOffice": false,
            "isCashDispenser": false
        }
    ]
}